[
    {
        "cod_sp": "SP_002_02",
        "nom_sp": "Anyama",
        "cod_dep": "002",
        "annee": 2021,
        "latitude": 5.43345,
        "longitude": -3.9217,
        "population": 0
    },
    {
        "cod_sp": "SP_002_03",
        "nom_sp": "Bingerville",
        "cod_dep": "002",
        "annee": 2021,
        "latitude": 5.35566,
        "longitude": -4.01217,
        "population": 204656
    },
    {
        "cod_sp": "SP_002_04",
        "nom_sp": "Brofodoume",
        "cod_dep": "002",
        "annee": 2021,
        "latitude": 5.51358,
        "longitude": -3.93072,
        "population": 3387
    },
    {
        "cod_sp": "SP_002_05",
        "nom_sp": "Songon",
        "cod_dep": "002",
        "annee": 2021,
        "latitude": 5.3196,
        "longitude": -4.25415,
        "population": 14977
    },
    {
        "cod_sp": "SP_002_11",
        "nom_sp": "Abobo",
        "cod_dep": "002",
        "annee": 2021,
        "latitude": 5.41613,
        "longitude": -4.0159,
        "population": 1340083
    },
    {
        "cod_sp": "SP_002_12",
        "nom_sp": "Adjame",
        "cod_dep": "002",
        "annee": 2021,
        "latitude": 5.32631,
        "longitude": -4.10766,
        "population": 0
    },
    {
        "cod_sp": "SP_002_13",
        "nom_sp": "Attecoube",
        "cod_dep": "002",
        "annee": 2021,
        "latitude": null,
        "longitude": null,
        "population": null
    },
    {
        "cod_sp": "SP_002_14",
        "nom_sp": "Cocody",
        "cod_dep": "002",
        "annee": 2021,
        "latitude": 5.33507,
        "longitude": -4.0039,
        "population": 0
    },
    {
        "cod_sp": "SP_002_15",
        "nom_sp": "Koumassi",
        "cod_dep": "002",
        "annee": 2021,
        "latitude": 5.29716,
        "longitude": -3.96753,
        "population": 412282
    },
    {
        "cod_sp": "SP_002_16",
        "nom_sp": "Marcory",
        "cod_dep": "002",
        "annee": 2021,
        "latitude": 5.31198,
        "longitude": -3.99363,
        "population": 214061
    },
    {
        "cod_sp": "SP_002_17",
        "nom_sp": "Plateau",
        "cod_dep": "002",
        "annee": 2021,
        "latitude": 5.32549,
        "longitude": -4.02014,
        "population": 7186
    },
    {
        "cod_sp": "SP_002_18",
        "nom_sp": "Port-Bouet",
        "cod_dep": "002",
        "annee": 2021,
        "latitude": 5.25677,
        "longitude": -3.96299,
        "population": 0
    },
    {
        "cod_sp": "SP_002_19",
        "nom_sp": "Treichville",
        "cod_dep": "002",
        "annee": 2021,
        "latitude": 5.28812,
        "longitude": -4.00626,
        "population": 0
    },
    {
        "cod_sp": "SP_002_20",
        "nom_sp": "Yopougon",
        "cod_dep": "002",
        "annee": 2021,
        "latitude": 5.37477,
        "longitude": -4.08669,
        "population": 0
    },
    {
        "cod_sp": "SP_017_01",
        "nom_sp": "Bediala",
        "cod_dep": "017",
        "annee": 2021,
        "latitude": 7.16008,
        "longitude": -6.30642,
        "population": 22419
    },
    {
        "cod_sp": "SP_017_02",
        "nom_sp": "Daloa",
        "cod_dep": "017",
        "annee": 2021,
        "latitude": 6.93333,
        "longitude": -6.40417,
        "population": 705378
    },
    {
        "cod_sp": "SP_017_03",
        "nom_sp": "Gadouan",
        "cod_dep": "017",
        "annee": 2021,
        "latitude": 6.65623,
        "longitude": -6.16609,
        "population": 16620
    },
    {
        "cod_sp": "SP_017_04",
        "nom_sp": "Gboguhe",
        "cod_dep": "017",
        "annee": 2021,
        "latitude": 6.75728,
        "longitude": -6.58371,
        "population": 4263
    },
    {
        "cod_sp": "SP_017_05",
        "nom_sp": "Gonate",
        "cod_dep": "017",
        "annee": 2021,
        "latitude": 6.90418,
        "longitude": -6.24347,
        "population": 24838
    },
    {
        "cod_sp": "SP_017_06",
        "nom_sp": "Zaibo",
        "cod_dep": "017",
        "annee": 2021,
        "latitude": 6.9893,
        "longitude": -6.66673,
        "population": 17406
    },
    {
        "cod_sp": "SP_027_01",
        "nom_sp": "Boguedia",
        "cod_dep": "027",
        "annee": 2021,
        "latitude": 6.63434,
        "longitude": -6.51915,
        "population": 6711
    },
    {
        "cod_sp": "SP_027_02",
        "nom_sp": "Iboguhe",
        "cod_dep": "027",
        "annee": 2021,
        "latitude": 6.5481,
        "longitude": -6.84419,
        "population": 7280
    },
    {
        "cod_sp": "SP_027_03",
        "nom_sp": "Issia",
        "cod_dep": "027",
        "annee": 2021,
        "latitude": 6.47917,
        "longitude": -6.53333,
        "population": 410628
    },
    {
        "cod_sp": "SP_027_04",
        "nom_sp": "Nahio",
        "cod_dep": "027",
        "annee": 2021,
        "latitude": 6.38423,
        "longitude": -6.22736,
        "population": 4240
    },
    {
        "cod_sp": "SP_027_05",
        "nom_sp": "Namane",
        "cod_dep": "027",
        "annee": 2021,
        "latitude": 6.42177,
        "longitude": -6.68203,
        "population": 8064
    },
    {
        "cod_sp": "SP_027_06",
        "nom_sp": "Saioua",
        "cod_dep": "027",
        "annee": 2021,
        "latitude": 6.48535,
        "longitude": -6.278,
        "population": 34860
    },
    {
        "cod_sp": "SP_027_07",
        "nom_sp": "Tapeguia",
        "cod_dep": "027",
        "annee": 2021,
        "latitude": 6.38718,
        "longitude": -6.51022,
        "population": 3187
    },
    {
        "cod_sp": "SP_048_01",
        "nom_sp": "Bazra-Nattis",
        "cod_dep": "048",
        "annee": 2021,
        "latitude": null,
        "longitude": null,
        "population": null
    },
    {
        "cod_sp": "SP_048_02",
        "nom_sp": "Dananon",
        "cod_dep": "048",
        "annee": 2021,
        "latitude": 7.61072,
        "longitude": -6.36333,
        "population": 5069
    },
    {
        "cod_sp": "SP_048_03",
        "nom_sp": "Dania",
        "cod_dep": "048",
        "annee": 2021,
        "latitude": 7.15082,
        "longitude": -6.84125,
        "population": 7908
    },
    {
        "cod_sp": "SP_048_04",
        "nom_sp": "Ketro Bassam",
        "cod_dep": "048",
        "annee": 2021,
        "latitude": null,
        "longitude": null,
        "population": null
    },
    {
        "cod_sp": "SP_048_05",
        "nom_sp": "Seitifla",
        "cod_dep": "048",
        "annee": 2021,
        "latitude": 7.43926,
        "longitude": -6.71813,
        "population": 10422
    },
    {
        "cod_sp": "SP_048_06",
        "nom_sp": "Vavoua",
        "cod_dep": "048",
        "annee": 2021,
        "latitude": 7.42083,
        "longitude": -6.70417,
        "population": 477154
    },
    {
        "cod_sp": "SP_095_01",
        "nom_sp": "Domangbeu",
        "cod_dep": "095",
        "annee": 2021,
        "latitude": 6.98467,
        "longitude": -7.01882,
        "population": 4394
    },
    {
        "cod_sp": "SP_095_02",
        "nom_sp": "Gregbeu",
        "cod_dep": "095",
        "annee": 2021,
        "latitude": 6.80685,
        "longitude": -6.71716,
        "population": 8385
    },
    {
        "cod_sp": "SP_095_03",
        "nom_sp": "Guessabo",
        "cod_dep": "095",
        "annee": 2021,
        "latitude": 6.74859,
        "longitude": -7.01689,
        "population": 0
    },
    {
        "cod_sp": "SP_095_04",
        "nom_sp": "Zoukougbeu",
        "cod_dep": "095",
        "annee": 2021,
        "latitude": 6.76229,
        "longitude": -6.8638,
        "population": 15375
    },
    {
        "cod_sp": "SP_029_01",
        "nom_sp": "Dassoungboho",
        "cod_dep": "029",
        "annee": 2021,
        "latitude": 9.38861,
        "longitude": -5.78584,
        "population": 1764
    },
    {
        "cod_sp": "SP_029_02",
        "nom_sp": "Kanoroba",
        "cod_dep": "029",
        "annee": 2021,
        "latitude": 9.11088,
        "longitude": -6.12238,
        "population": 8735
    },
    {
        "cod_sp": "SP_029_03",
        "nom_sp": "Karakoro",
        "cod_dep": "029",
        "annee": 2021,
        "latitude": 9.4166,
        "longitude": -5.494,
        "population": 1604
    },
    {
        "cod_sp": "SP_029_04",
        "nom_sp": "Kiemou",
        "cod_dep": "029",
        "annee": 2021,
        "latitude": 9.0605,
        "longitude": -5.54983,
        "population": 5065
    },
    {
        "cod_sp": "SP_029_05",
        "nom_sp": "Koni",
        "cod_dep": "029",
        "annee": 2021,
        "latitude": 9.58789,
        "longitude": -5.687,
        "population": 3369
    },
    {
        "cod_sp": "SP_029_06",
        "nom_sp": "Korhogo",
        "cod_dep": "029",
        "annee": 2021,
        "latitude": 9.39583,
        "longitude": -5.82917,
        "population": 748393
    },
    {
        "cod_sp": "SP_029_07",
        "nom_sp": "Kombolokoura",
        "cod_dep": "029",
        "annee": 2021,
        "latitude": null,
        "longitude": null,
        "population": null
    },
    {
        "cod_sp": "SP_029_08",
        "nom_sp": "Komborodougou",
        "cod_dep": "029",
        "annee": 2021,
        "latitude": 9.32634,
        "longitude": -5.42922,
        "population": 5611
    },
    {
        "cod_sp": "SP_029_09",
        "nom_sp": "Lataha",
        "cod_dep": "029",
        "annee": 2021,
        "latitude": 9.56724,
        "longitude": -5.59098,
        "population": 7379
    },
    {
        "cod_sp": "SP_029_10",
        "nom_sp": "Nafoun",
        "cod_dep": "029",
        "annee": 2021,
        "latitude": 9.33472,
        "longitude": -6.21167,
        "population": 2956
    },
    {
        "cod_sp": "SP_029_11",
        "nom_sp": "Napie",
        "cod_dep": "029",
        "annee": 2021,
        "latitude": 9.28868,
        "longitude": -5.58324,
        "population": 7627
    },
    {
        "cod_sp": "SP_029_12",
        "nom_sp": "N'Ganon",
        "cod_dep": "029",
        "annee": 2021,
        "latitude": 9.68176,
        "longitude": -5.99172,
        "population": 4599
    },
    {
        "cod_sp": "SP_029_13",
        "nom_sp": "Niofoin",
        "cod_dep": "029",
        "annee": 2021,
        "latitude": 9.615,
        "longitude": -6.07778,
        "population": 1123
    },
    {
        "cod_sp": "SP_029_14",
        "nom_sp": "Sirasso",
        "cod_dep": "029",
        "annee": 2021,
        "latitude": 9.27425,
        "longitude": -6.09897,
        "population": 11497
    },
    {
        "cod_sp": "SP_029_15",
        "nom_sp": "Sohouo",
        "cod_dep": "029",
        "annee": 2021,
        "latitude": null,
        "longitude": null,
        "population": null
    },
    {
        "cod_sp": "SP_029_16",
        "nom_sp": "Tioroniaradougou",
        "cod_dep": "029",
        "annee": 2021,
        "latitude": 9.35446,
        "longitude": -5.63766,
        "population": 4907
    },
    {
        "cod_sp": "SP_075_01",
        "nom_sp": "Boron",
        "cod_dep": "075",
        "annee": 2021,
        "latitude": 8.69445,
        "longitude": -5.96906,
        "population": 7952
    },
    {
        "cod_sp": "SP_075_02",
        "nom_sp": "Dikodougou",
        "cod_dep": "075",
        "annee": 2021,
        "latitude": 8.5,
        "longitude": -5.86667,
        "population": 1306
    },
    {
        "cod_sp": "SP_075_03",
        "nom_sp": "Guiembe",
        "cod_dep": "075",
        "annee": 2021,
        "latitude": 9.23298,
        "longitude": -5.71277,
        "population": 6751
    },
    {
        "cod_sp": "SP_090_01",
        "nom_sp": "Bahouakaha",
        "cod_dep": "090",
        "annee": 2021,
        "latitude": null,
        "longitude": null,
        "population": null
    },
    {
        "cod_sp": "SP_090_02",
        "nom_sp": "Kagbolodougou",
        "cod_dep": "090",
        "annee": 2021,
        "latitude": null,
        "longitude": null,
        "population": null
    },
    {
        "cod_sp": "SP_090_03",
        "nom_sp": "Sediogo",
        "cod_dep": "090",
        "annee": 2021,
        "latitude": 9.51187,
        "longitude": -5.47616,
        "population": 2315
    },
    {
        "cod_sp": "SP_090_04",
        "nom_sp": "Sinematiali",
        "cod_dep": "090",
        "annee": 2021,
        "latitude": 9.55833,
        "longitude": -5.39167,
        "population": 0
    },
    {
        "cod_sp": "SP_103_01",
        "nom_sp": "Bougou",
        "cod_dep": "103",
        "annee": 2021,
        "latitude": 8.95993,
        "longitude": -4.41268,
        "population": 0
    },
    {
        "cod_sp": "SP_103_02",
        "nom_sp": "Katiali",
        "cod_dep": "103",
        "annee": 2021,
        "latitude": 9.90141,
        "longitude": -6.12638,
        "population": 942
    },
    {
        "cod_sp": "SP_103_03",
        "nom_sp": "Katogo",
        "cod_dep": "103",
        "annee": 2021,
        "latitude": null,
        "longitude": null,
        "population": null
    },
    {
        "cod_sp": "SP_103_04",
        "nom_sp": "M'Bengue",
        "cod_dep": "103",
        "annee": 2021,
        "latitude": 10.00244,
        "longitude": -5.90037,
        "population": 28832
    },
    {
        "cod_sp": "SP_008_01",
        "nom_sp": "Ando-Kekrenou",
        "cod_dep": "008",
        "annee": 2021,
        "latitude": null,
        "longitude": null,
        "population": null
    },
    {
        "cod_sp": "SP_008_02",
        "nom_sp": "Beoumi",
        "cod_dep": "008",
        "annee": 2021,
        "latitude": 7.76413,
        "longitude": -5.52982,
        "population": 0
    },
    {
        "cod_sp": "SP_008_03",
        "nom_sp": "Bodokro",
        "cod_dep": "008",
        "annee": 2021,
        "latitude": 7.86144,
        "longitude": -5.47745,
        "population": 5365
    },
    {
        "cod_sp": "SP_008_04",
        "nom_sp": "Lolobo",
        "cod_dep": "008",
        "annee": 2021,
        "latitude": 6.95892,
        "longitude": -5.26581,
        "population": 5361
    },
    {
        "cod_sp": "SP_008_05",
        "nom_sp": "Marabadjassa",
        "cod_dep": "008",
        "annee": 2021,
        "latitude": 8.09424,
        "longitude": -5.43596,
        "population": 2967
    },
    {
        "cod_sp": "SP_008_06",
        "nom_sp": "N'Guessankro",
        "cod_dep": "008",
        "annee": 2021,
        "latitude": 8.00577,
        "longitude": -5.44009,
        "population": 1654
    },
    {
        "cod_sp": "SP_008_07",
        "nom_sp": "Kondrobo",
        "cod_dep": "008",
        "annee": 2021,
        "latitude": null,
        "longitude": null,
        "population": null
    },
    {
        "cod_sp": "SP_013_01",
        "nom_sp": "Bouake",
        "cod_dep": "013",
        "annee": 2021,
        "latitude": 5.34999,
        "longitude": -3.97881,
        "population": 0
    },
    {
        "cod_sp": "SP_013_02",
        "nom_sp": "Bounda",
        "cod_dep": "013",
        "annee": 2021,
        "latitude": 8.08165,
        "longitude": -7.94898,
        "population": 719
    },
    {
        "cod_sp": "SP_013_03",
        "nom_sp": "Brobo",
        "cod_dep": "013",
        "annee": 2021,
        "latitude": 7.64026,
        "longitude": -4.82541,
        "population": 10382
    },
    {
        "cod_sp": "SP_013_04",
        "nom_sp": "Djebonoua",
        "cod_dep": "013",
        "annee": 2021,
        "latitude": 7.51573,
        "longitude": -5.0735,
        "population": 4728
    },
    {
        "cod_sp": "SP_013_05",
        "nom_sp": "Mamini",
        "cod_dep": "013",
        "annee": 2021,
        "latitude": 6.52308,
        "longitude": -3.80314,
        "population": 0
    },
    {
        "cod_sp": "SP_036_01",
        "nom_sp": "Ayaou-Sokpa",
        "cod_dep": "036",
        "annee": 2021,
        "latitude": 7.42057,
        "longitude": -5.61407,
        "population": 11933
    },
    {
        "cod_sp": "SP_036_02",
        "nom_sp": "Dibri-Asrikro",
        "cod_dep": "036",
        "annee": 2021,
        "latitude": null,
        "longitude": null,
        "population": null
    },
    {
        "cod_sp": "SP_036_03",
        "nom_sp": "Sakassou",
        "cod_dep": "036",
        "annee": 2021,
        "latitude": 7.44167,
        "longitude": -5.3375,
        "population": 108110
    },
    {
        "cod_sp": "SP_036_04",
        "nom_sp": "Toumodi-Sakassou",
        "cod_dep": "036",
        "annee": 2021,
        "latitude": 7.39866,
        "longitude": -5.56448,
        "population": 3146
    },
    {
        "cod_sp": "SP_074_01",
        "nom_sp": "Botro",
        "cod_dep": "074",
        "annee": 2021,
        "latitude": 7.83533,
        "longitude": -5.34288,
        "population": 0
    },
    {
        "cod_sp": "SP_074_02",
        "nom_sp": "Diabo",
        "cod_dep": "074",
        "annee": 2021,
        "latitude": 7.78959,
        "longitude": -5.17102,
        "population": 11047
    },
    {
        "cod_sp": "SP_074_03",
        "nom_sp": "Krofoinsou",
        "cod_dep": "074",
        "annee": 2021,
        "latitude": null,
        "longitude": null,
        "population": null
    },
    {
        "cod_sp": "SP_074_04",
        "nom_sp": "Languibonou",
        "cod_dep": "074",
        "annee": 2021,
        "latitude": 7.70039,
        "longitude": -5.26249,
        "population": 1411
    },
    {
        "cod_sp": "SP_001_01",
        "nom_sp": "Abengourou",
        "cod_dep": "001",
        "annee": 2021,
        "latitude": 6.66667,
        "longitude": -3.47083,
        "population": 430539
    },
    {
        "cod_sp": "SP_001_02",
        "nom_sp": "Amelekia",
        "cod_dep": "001",
        "annee": 2021,
        "latitude": 6.83036,
        "longitude": -3.57522,
        "population": 11192
    },
    {
        "cod_sp": "SP_001_03",
        "nom_sp": "Aniassue",
        "cod_dep": "001",
        "annee": 2021,
        "latitude": 6.65368,
        "longitude": -3.68103,
        "population": 12088
    },
    {
        "cod_sp": "SP_001_04",
        "nom_sp": "Ebilassokro",
        "cod_dep": "001",
        "annee": 2021,
        "latitude": 6.37917,
        "longitude": -3.34722,
        "population": 18530
    },
    {
        "cod_sp": "SP_001_05",
        "nom_sp": "Niable",
        "cod_dep": "001",
        "annee": 2021,
        "latitude": 6.15422,
        "longitude": -5.71373,
        "population": 0
    },
    {
        "cod_sp": "SP_001_06",
        "nom_sp": "Yakasse-Feyasse",
        "cod_dep": "001",
        "annee": 2021,
        "latitude": 6.9557,
        "longitude": -3.4126,
        "population": 9934
    },
    {
        "cod_sp": "SP_001_07",
        "nom_sp": "Zaranou",
        "cod_dep": "001",
        "annee": 2021,
        "latitude": 6.4265,
        "longitude": -3.36171,
        "population": 12116
    },
    {
        "cod_sp": "SP_006_01",
        "nom_sp": "Agnibilekrou",
        "cod_dep": "006",
        "annee": 2021,
        "latitude": 7.13113,
        "longitude": -3.20415,
        "population": 63015
    },
    {
        "cod_sp": "SP_006_02",
        "nom_sp": "Akoboissue",
        "cod_dep": "006",
        "annee": 2021,
        "latitude": null,
        "longitude": null,
        "population": null
    },
    {
        "cod_sp": "SP_006_03",
        "nom_sp": "Dame",
        "cod_dep": "006",
        "annee": 2021,
        "latitude": 7.07085,
        "longitude": -3.14883,
        "population": 12543
    },
    {
        "cod_sp": "SP_006_04",
        "nom_sp": "Duffrebo",
        "cod_dep": "006",
        "annee": 2021,
        "latitude": null,
        "longitude": null,
        "population": null
    },
    {
        "cod_sp": "SP_006_05",
        "nom_sp": "Tanguelan",
        "cod_dep": "006",
        "annee": 2021,
        "latitude": null,
        "longitude": null,
        "population": null
    },
    {
        "cod_sp": "SP_073_01",
        "nom_sp": "Bettie",
        "cod_dep": "073",
        "annee": 2021,
        "latitude": 6.07568,
        "longitude": -3.40846,
        "population": 10960
    },
    {
        "cod_sp": "SP_073_02",
        "nom_sp": "Diamarakro",
        "cod_dep": "073",
        "annee": 2021,
        "latitude": 6.23681,
        "longitude": -3.32006,
        "population": 7102
    },
    {
        "cod_sp": "SP_009_01",
        "nom_sp": "Biankouma",
        "cod_dep": "009",
        "annee": 2021,
        "latitude": 7.74167,
        "longitude": -7.46667,
        "population": 238714
    },
    {
        "cod_sp": "SP_009_02",
        "nom_sp": "Blapleu",
        "cod_dep": "009",
        "annee": 2021,
        "latitude": 7.247,
        "longitude": -8.01865,
        "population": 0
    },
    {
        "cod_sp": "SP_009_03",
        "nom_sp": "Gbangbegouine",
        "cod_dep": "009",
        "annee": 2021,
        "latitude": 7.13378,
        "longitude": -7.76876,
        "population": 0
    },
    {
        "cod_sp": "SP_009_04",
        "nom_sp": "Gbonne",
        "cod_dep": "009",
        "annee": 2021,
        "latitude": 7.53116,
        "longitude": -7.41275,
        "population": 4285
    },
    {
        "cod_sp": "SP_009_05",
        "nom_sp": "Gouine",
        "cod_dep": "009",
        "annee": 2021,
        "latitude": 7.71628,
        "longitude": -7.41383,
        "population": 3054
    },
    {
        "cod_sp": "SP_009_06",
        "nom_sp": "Kpata",
        "cod_dep": "009",
        "annee": 2021,
        "latitude": 7.71913,
        "longitude": -7.54581,
        "population": 2048
    },
    {
        "cod_sp": "SP_009_07",
        "nom_sp": "Santa",
        "cod_dep": "009",
        "annee": 2021,
        "latitude": 7.66389,
        "longitude": -7.84778,
        "population": 6874
    },
    {
        "cod_sp": "SP_018_01",
        "nom_sp": "Daleu",
        "cod_dep": "018",
        "annee": 2021,
        "latitude": 7.51085,
        "longitude": -8.10603,
        "population": 3146
    },
    {
        "cod_sp": "SP_018_02",
        "nom_sp": "Danane",
        "cod_dep": "018",
        "annee": 2021,
        "latitude": 7.25957,
        "longitude": -8.15498,
        "population": 78614
    },
    {
        "cod_sp": "SP_018_03",
        "nom_sp": "Gbon-Houye",
        "cod_dep": "018",
        "annee": 2021,
        "latitude": 7.42396,
        "longitude": -8.33997,
        "population": 1206
    },
    {
        "cod_sp": "SP_018_04",
        "nom_sp": "Kouan-Houle",
        "cod_dep": "018",
        "annee": 2021,
        "latitude": 7.39279,
        "longitude": -8.26093,
        "population": 6406
    },
    {
        "cod_sp": "SP_018_05",
        "nom_sp": "Mahapleu",
        "cod_dep": "018",
        "annee": 2021,
        "latitude": 7.22474,
        "longitude": -7.93118,
        "population": 19342
    },
    {
        "cod_sp": "SP_018_06",
        "nom_sp": "Seileu",
        "cod_dep": "018",
        "annee": 2021,
        "latitude": 7.09628,
        "longitude": -8.17351,
        "population": 3353
    },
    {
        "cod_sp": "SP_018_07",
        "nom_sp": "Zonneu",
        "cod_dep": "018",
        "annee": 2021,
        "latitude": 7.17144,
        "longitude": -8.06675,
        "population": 2543
    },
    {
        "cod_sp": "SP_031_01",
        "nom_sp": "Bogouine",
        "cod_dep": "031",
        "annee": 2021,
        "latitude": 7.2576,
        "longitude": -7.59619,
        "population": 3200
    },
    {
        "cod_sp": "SP_031_02",
        "nom_sp": "Fagnampleu",
        "cod_dep": "031",
        "annee": 2021,
        "latitude": null,
        "longitude": null,
        "population": null
    },
    {
        "cod_sp": "SP_031_03",
        "nom_sp": "Gbangbegouine-Yati",
        "cod_dep": "031",
        "annee": 2021,
        "latitude": null,
        "longitude": null,
        "population": null
    },
    {
        "cod_sp": "SP_031_04",
        "nom_sp": "Logouale",
        "cod_dep": "031",
        "annee": 2021,
        "latitude": 7.23696,
        "longitude": -7.77916,
        "population": 1195
    },
    {
        "cod_sp": "SP_031_05",
        "nom_sp": "Man",
        "cod_dep": "031",
        "annee": 2021,
        "latitude": 7.33333,
        "longitude": -7.6625,
        "population": 461135
    },
    {
        "cod_sp": "SP_031_06",
        "nom_sp": "Podiagouine",
        "cod_dep": "031",
        "annee": 2021,
        "latitude": 7.14984,
        "longitude": -7.74593,
        "population": 2844
    },
    {
        "cod_sp": "SP_031_07",
        "nom_sp": "Sandougou-Soba",
        "cod_dep": "031",
        "annee": 2021,
        "latitude": 7.60098,
        "longitude": -7.47919,
        "population": 2483
    },
    {
        "cod_sp": "SP_031_08",
        "nom_sp": "Sangouine",
        "cod_dep": "031",
        "annee": 2021,
        "latitude": 7.27472,
        "longitude": -7.77944,
        "population": 10313
    },
    {
        "cod_sp": "SP_031_09",
        "nom_sp": "Yapleu",
        "cod_dep": "031",
        "annee": 2021,
        "latitude": 7.09056,
        "longitude": -7.71028,
        "population": 8519
    },
    {
        "cod_sp": "SP_031_10",
        "nom_sp": "Zagoue",
        "cod_dep": "031",
        "annee": 2021,
        "latitude": 7.8692,
        "longitude": -7.43084,
        "population": 0
    },
    {
        "cod_sp": "SP_031_11",
        "nom_sp": "Ziogouine",
        "cod_dep": "031",
        "annee": 2021,
        "latitude": null,
        "longitude": null,
        "population": null
    },
    {
        "cod_sp": "SP_066_01",
        "nom_sp": "Banneu",
        "cod_dep": "066",
        "annee": 2021,
        "latitude": 7.07343,
        "longitude": -8.25311,
        "population": 5830
    },
    {
        "cod_sp": "SP_066_02",
        "nom_sp": "Bin-Houye",
        "cod_dep": "066",
        "annee": 2021,
        "latitude": 6.78241,
        "longitude": -8.31311,
        "population": 9879
    },
    {
        "cod_sp": "SP_066_03",
        "nom_sp": "Goulaleu",
        "cod_dep": "066",
        "annee": 2021,
        "latitude": 6.70309,
        "longitude": -8.36241,
        "population": 2552
    },
    {
        "cod_sp": "SP_066_04",
        "nom_sp": "Teapleu",
        "cod_dep": "066",
        "annee": 2021,
        "latitude": null,
        "longitude": null,
        "population": null
    },
    {
        "cod_sp": "SP_066_05",
        "nom_sp": "Yelleu",
        "cod_dep": "066",
        "annee": 2021,
        "latitude": null,
        "longitude": null,
        "population": null
    },
    {
        "cod_sp": "SP_066_06",
        "nom_sp": "Zouan-Hounien",
        "cod_dep": "066",
        "annee": 2021,
        "latitude": 6.86979,
        "longitude": -8.2614,
        "population": 0
    },
    {
        "cod_sp": "SP_106_01",
        "nom_sp": "Sipilou",
        "cod_dep": "106",
        "annee": 2021,
        "latitude": 7.8645,
        "longitude": -8.10143,
        "population": 7395
    },
    {
        "cod_sp": "SP_106_02",
        "nom_sp": "Yorodougou",
        "cod_dep": "106",
        "annee": 2021,
        "latitude": 7.78356,
        "longitude": -7.88024,
        "population": 5996
    },
    {
        "cod_sp": "SP_049_01",
        "nom_sp": "Kossou",
        "cod_dep": "049",
        "annee": 2021,
        "latitude": 6.95907,
        "longitude": -4.96852,
        "population": 1075
    },
    {
        "cod_sp": "SP_049_02",
        "nom_sp": "Yamoussoukro",
        "cod_dep": "049",
        "annee": 2021,
        "latitude": 6.85205,
        "longitude": -5.29854,
        "population": 0
    },
    {
        "cod_sp": "SP_072_01",
        "nom_sp": "Attiegouakro",
        "cod_dep": "072",
        "annee": 2021,
        "latitude": 6.77402,
        "longitude": -5.11411,
        "population": 4537
    },
    {
        "cod_sp": "SP_072_02",
        "nom_sp": "Lolobo",
        "cod_dep": "072",
        "annee": 2021,
        "latitude": 6.95892,
        "longitude": -5.26581,
        "population": 5361
    },
    {
        "cod_sp": "SP_010_01",
        "nom_sp": "Appimandoum",
        "cod_dep": "010",
        "annee": 2021,
        "latitude": 7.89569,
        "longitude": -2.87273,
        "population": 2569
    },
    {
        "cod_sp": "SP_010_02",
        "nom_sp": "Pinda-Boroko",
        "cod_dep": "010",
        "annee": 2021,
        "latitude": null,
        "longitude": null,
        "population": null
    },
    {
        "cod_sp": "SP_010_03",
        "nom_sp": "Bondo",
        "cod_dep": "010",
        "annee": 2021,
        "latitude": null,
        "longitude": null,
        "population": null
    },
    {
        "cod_sp": "SP_010_04",
        "nom_sp": "Bondoukou",
        "cod_dep": "010",
        "annee": 2021,
        "latitude": 8.26667,
        "longitude": -2.95,
        "population": 453841
    },
    {
        "cod_sp": "SP_010_05",
        "nom_sp": "Goumere",
        "cod_dep": "010",
        "annee": 2021,
        "latitude": 7.8963,
        "longitude": -2.98013,
        "population": 6778
    },
    {
        "cod_sp": "SP_010_06",
        "nom_sp": "Laoudi Ba",
        "cod_dep": "010",
        "annee": 2021,
        "latitude": null,
        "longitude": null,
        "population": null
    },
    {
        "cod_sp": "SP_010_07",
        "nom_sp": "Sapli-Sepingo",
        "cod_dep": "010",
        "annee": 2021,
        "latitude": null,
        "longitude": null,
        "population": null
    },
    {
        "cod_sp": "SP_010_08",
        "nom_sp": "Sorobango",
        "cod_dep": "010",
        "annee": 2021,
        "latitude": 8.17239,
        "longitude": -2.70814,
        "population": 4430
    },
    {
        "cod_sp": "SP_010_09",
        "nom_sp": "Tabagne",
        "cod_dep": "010",
        "annee": 2021,
        "latitude": 7.99104,
        "longitude": -3.06871,
        "population": 6416
    },
    {
        "cod_sp": "SP_010_10",
        "nom_sp": "Tagadi",
        "cod_dep": "010",
        "annee": 2021,
        "latitude": 8.63154,
        "longitude": -2.62515,
        "population": 6975
    },
    {
        "cod_sp": "SP_010_11",
        "nom_sp": "Taoudi",
        "cod_dep": "010",
        "annee": 2021,
        "latitude": 8.13701,
        "longitude": -3.43473,
        "population": 5571
    },
    {
        "cod_sp": "SP_010_12",
        "nom_sp": "Yezimala",
        "cod_dep": "010",
        "annee": 2021,
        "latitude": 8.20664,
        "longitude": -2.94812,
        "population": 3484
    },
    {
        "cod_sp": "SP_043_01",
        "nom_sp": "Amanvi",
        "cod_dep": "043",
        "annee": 2021,
        "latitude": 7.96972,
        "longitude": -3.13889,
        "population": 1906
    },
    {
        "cod_sp": "SP_043_02",
        "nom_sp": "Diamba",
        "cod_dep": "043",
        "annee": 2021,
        "latitude": 7.80975,
        "longitude": -3.31254,
        "population": 1326
    },
    {
        "cod_sp": "SP_043_03",
        "nom_sp": "Tanda",
        "cod_dep": "043",
        "annee": 2021,
        "latitude": 7.84167,
        "longitude": -3.225,
        "population": 113523
    },
    {
        "cod_sp": "SP_043_04",
        "nom_sp": "Tiedio",
        "cod_dep": "043",
        "annee": 2021,
        "latitude": 7.88338,
        "longitude": -3.28255,
        "population": 3082
    },
    {
        "cod_sp": "SP_070_01",
        "nom_sp": "Boahia",
        "cod_dep": "070",
        "annee": 2021,
        "latitude": 7.5717,
        "longitude": -3.51489,
        "population": 5143
    },
    {
        "cod_sp": "SP_070_02",
        "nom_sp": "Kokomian",
        "cod_dep": "070",
        "annee": 2021,
        "latitude": null,
        "longitude": null,
        "population": null
    },
    {
        "cod_sp": "SP_070_03",
        "nom_sp": "Kouassi-Datekro",
        "cod_dep": "070",
        "annee": 2021,
        "latitude": 7.8175,
        "longitude": -3.52556,
        "population": 7965
    },
    {
        "cod_sp": "SP_070_04",
        "nom_sp": "Koun-Fao",
        "cod_dep": "070",
        "annee": 2021,
        "latitude": 7.48333,
        "longitude": -3.25,
        "population": 0
    },
    {
        "cod_sp": "SP_070_05",
        "nom_sp": "Tankesse",
        "cod_dep": "070",
        "annee": 2021,
        "latitude": null,
        "longitude": null,
        "population": null
    },
    {
        "cod_sp": "SP_070_06",
        "nom_sp": "Tienkoikro",
        "cod_dep": "070",
        "annee": 2021,
        "latitude": null,
        "longitude": null,
        "population": null
    },
    {
        "cod_sp": "SP_089_01",
        "nom_sp": "Bandakagni-Tomora",
        "cod_dep": "089",
        "annee": 2021,
        "latitude": 8.00659,
        "longitude": -3.30313,
        "population": 3848
    },
    {
        "cod_sp": "SP_089_02",
        "nom_sp": "Dimandougou",
        "cod_dep": "089",
        "annee": 2021,
        "latitude": 8.01204,
        "longitude": -3.77288,
        "population": 3728
    },
    {
        "cod_sp": "SP_089_03",
        "nom_sp": "Sandegue",
        "cod_dep": "089",
        "annee": 2021,
        "latitude": 7.98167,
        "longitude": -3.55458,
        "population": 0
    },
    {
        "cod_sp": "SP_089_04",
        "nom_sp": "Yorobodi",
        "cod_dep": "089",
        "annee": 2021,
        "latitude": 8.11913,
        "longitude": -3.68191,
        "population": 5841
    },
    {
        "cod_sp": "SP_093_01",
        "nom_sp": "Assuefry",
        "cod_dep": "093",
        "annee": 2021,
        "latitude": null,
        "longitude": null,
        "population": null
    },
    {
        "cod_sp": "SP_093_02",
        "nom_sp": "Kouassia-Niaguini",
        "cod_dep": "093",
        "annee": 2021,
        "latitude": null,
        "longitude": null,
        "population": null
    },
    {
        "cod_sp": "SP_093_03",
        "nom_sp": "Transua",
        "cod_dep": "093",
        "annee": 2021,
        "latitude": 7.55004,
        "longitude": -3.01431,
        "population": 5333
    },
    {
        "cod_sp": "SP_037_01",
        "nom_sp": "Doba",
        "cod_dep": "037",
        "annee": 2021,
        "latitude": null,
        "longitude": null,
        "population": null
    },
    {
        "cod_sp": "SP_037_02",
        "nom_sp": "Dogbo",
        "cod_dep": "037",
        "annee": 2021,
        "latitude": 4.94556,
        "longitude": -7.08338,
        "population": 0
    },
    {
        "cod_sp": "SP_037_03",
        "nom_sp": "Gabiadji",
        "cod_dep": "037",
        "annee": 2021,
        "latitude": 5.0234,
        "longitude": -6.56157,
        "population": 22619
    },
    {
        "cod_sp": "SP_037_04",
        "nom_sp": "Grand-Bereby",
        "cod_dep": "037",
        "annee": 2021,
        "latitude": null,
        "longitude": null,
        "population": null
    },
    {
        "cod_sp": "SP_037_05",
        "nom_sp": "San-Pedro",
        "cod_dep": "037",
        "annee": 2021,
        "latitude": null,
        "longitude": null,
        "population": null
    },
    {
        "cod_sp": "SP_042_01",
        "nom_sp": "Dapo-Iboke",
        "cod_dep": "042",
        "annee": 2021,
        "latitude": 4.72959,
        "longitude": -7.38578,
        "population": 1943
    },
    {
        "cod_sp": "SP_042_02",
        "nom_sp": "Djamandioke",
        "cod_dep": "042",
        "annee": 2021,
        "latitude": 4.4296,
        "longitude": -7.47038,
        "population": 1733
    },
    {
        "cod_sp": "SP_042_03",
        "nom_sp": "Djouroutou",
        "cod_dep": "042",
        "annee": 2021,
        "latitude": null,
        "longitude": null,
        "population": null
    },
    {
        "cod_sp": "SP_042_04",
        "nom_sp": "Grabo",
        "cod_dep": "042",
        "annee": 2021,
        "latitude": 4.92035,
        "longitude": -7.49562,
        "population": 11640
    },
    {
        "cod_sp": "SP_042_05",
        "nom_sp": "Olodio",
        "cod_dep": "042",
        "annee": 2021,
        "latitude": 4.71589,
        "longitude": -7.46696,
        "population": 5554
    },
    {
        "cod_sp": "SP_042_06",
        "nom_sp": "Tabou",
        "cod_dep": "042",
        "annee": 2021,
        "latitude": 5.03333,
        "longitude": -7.30417,
        "population": 270482
    },
    {
        "cod_sp": "SP_034_01",
        "nom_sp": "Bako",
        "cod_dep": "034",
        "annee": 2021,
        "latitude": 9.13911,
        "longitude": -7.61037,
        "population": 2328
    },
    {
        "cod_sp": "SP_034_02",
        "nom_sp": "Bougousso",
        "cod_dep": "034",
        "annee": 2021,
        "latitude": 9.25696,
        "longitude": -7.82416,
        "population": 1786
    },
    {
        "cod_sp": "SP_034_03",
        "nom_sp": "Dioulatiedougou",
        "cod_dep": "034",
        "annee": 2021,
        "latitude": 8.97225,
        "longitude": -7.2323,
        "population": 1827
    },
    {
        "cod_sp": "SP_034_04",
        "nom_sp": "Odienne",
        "cod_dep": "034",
        "annee": 2021,
        "latitude": 9.50511,
        "longitude": -7.56433,
        "population": 54669
    },
    {
        "cod_sp": "SP_034_05",
        "nom_sp": "Tieme",
        "cod_dep": "034",
        "annee": 2021,
        "latitude": 5.21895,
        "longitude": -4.64555,
        "population": 0
    },
    {
        "cod_sp": "SP_067_01",
        "nom_sp": "Fengolo",
        "cod_dep": "067",
        "annee": 2021,
        "latitude": 6.78634,
        "longitude": -7.39338,
        "population": 37165
    },
    {
        "cod_sp": "SP_067_02",
        "nom_sp": "Madinani",
        "cod_dep": "067",
        "annee": 2021,
        "latitude": 9.55196,
        "longitude": -6.95878,
        "population": 0
    },
    {
        "cod_sp": "SP_067_03",
        "nom_sp": "N'Goloblasso",
        "cod_dep": "067",
        "annee": 2021,
        "latitude": 9.68488,
        "longitude": -7.22373,
        "population": 3020
    },
    {
        "cod_sp": "SP_088_01",
        "nom_sp": "Kimbirila-Sud",
        "cod_dep": "088",
        "annee": 2021,
        "latitude": null,
        "longitude": null,
        "population": null
    },
    {
        "cod_sp": "SP_088_02",
        "nom_sp": "Samatiguila",
        "cod_dep": "088",
        "annee": 2021,
        "latitude": 9.81952,
        "longitude": -7.56085,
        "population": 6278
    },
    {
        "cod_sp": "SP_100_01",
        "nom_sp": "Gbeleban",
        "cod_dep": "100",
        "annee": 2021,
        "latitude": 9.58461,
        "longitude": -8.13183,
        "population": 3003
    },
    {
        "cod_sp": "SP_100_02",
        "nom_sp": "Seydougou",
        "cod_dep": "100",
        "annee": 2021,
        "latitude": 9.51182,
        "longitude": -7.97555,
        "population": 1961
    },
    {
        "cod_sp": "SP_100_03",
        "nom_sp": "Samango",
        "cod_dep": "100",
        "annee": 2021,
        "latitude": 9.66447,
        "longitude": -7.73071,
        "population": 873
    },
    {
        "cod_sp": "SP_105_01",
        "nom_sp": "Gbongaha",
        "cod_dep": "105",
        "annee": 2021,
        "latitude": null,
        "longitude": null,
        "population": null
    },
    {
        "cod_sp": "SP_105_02",
        "nom_sp": "Seguelon",
        "cod_dep": "105",
        "annee": 2021,
        "latitude": 9.35694,
        "longitude": -7.12083,
        "population": 4625
    },
    {
        "cod_sp": "SP_020_01",
        "nom_sp": "Abigui",
        "cod_dep": "020",
        "annee": 2021,
        "latitude": 6.69462,
        "longitude": -4.83379,
        "population": 2785
    },
    {
        "cod_sp": "SP_020_02",
        "nom_sp": "Djangokro",
        "cod_dep": "020",
        "annee": 2021,
        "latitude": null,
        "longitude": null,
        "population": null
    },
    {
        "cod_sp": "SP_020_03",
        "nom_sp": "Dimbokro",
        "cod_dep": "020",
        "annee": 2021,
        "latitude": 6.7625,
        "longitude": -4.72917,
        "population": 102192
    },
    {
        "cod_sp": "SP_020_04",
        "nom_sp": "Nofou",
        "cod_dep": "020",
        "annee": 2021,
        "latitude": null,
        "longitude": null,
        "population": null
    },
    {
        "cod_sp": "SP_053_01",
        "nom_sp": "Bengassou",
        "cod_dep": "053",
        "annee": 2021,
        "latitude": null,
        "longitude": null,
        "population": null
    },
    {
        "cod_sp": "SP_053_02",
        "nom_sp": "Bocanda",
        "cod_dep": "053",
        "annee": 2021,
        "latitude": 7.00833,
        "longitude": -4.4375,
        "population": 121469
    },
    {
        "cod_sp": "SP_053_03",
        "nom_sp": "Kouadioblekro",
        "cod_dep": "053",
        "annee": 2021,
        "latitude": null,
        "longitude": null,
        "population": null
    },
    {
        "cod_sp": "SP_053_04",
        "nom_sp": "N'Zecrezessou",
        "cod_dep": "053",
        "annee": 2021,
        "latitude": null,
        "longitude": null,
        "population": null
    },
    {
        "cod_sp": "SP_102_01",
        "nom_sp": "Kouassi-Kouassikro",
        "cod_dep": "102",
        "annee": 2021,
        "latitude": 7.28186,
        "longitude": -4.65691,
        "population": 0
    },
    {
        "cod_sp": "SP_102_02",
        "nom_sp": "Mekro",
        "cod_dep": "102",
        "annee": 2021,
        "latitude": 7.56273,
        "longitude": -5.12379,
        "population": 0
    },
    {
        "cod_sp": "SP_012_01",
        "nom_sp": "Begbessou",
        "cod_dep": "012",
        "annee": 2021,
        "latitude": 7.06697,
        "longitude": -5.59738,
        "population": 6463
    },
    {
        "cod_sp": "SP_012_03",
        "nom_sp": "Bouafle",
        "cod_dep": "012",
        "annee": 2021,
        "latitude": 6.99041,
        "longitude": -5.7442,
        "population": 104209
    },
    {
        "cod_sp": "SP_012_04",
        "nom_sp": "N'Douffoukankro",
        "cod_dep": "012",
        "annee": 2021,
        "latitude": 6.8616,
        "longitude": -5.82098,
        "population": 8025
    },
    {
        "cod_sp": "SP_012_05",
        "nom_sp": "Pakouabo",
        "cod_dep": "012",
        "annee": 2021,
        "latitude": 7.15724,
        "longitude": -5.7925,
        "population": 7443
    },
    {
        "cod_sp": "SP_012_06",
        "nom_sp": "Tibeita",
        "cod_dep": "012",
        "annee": 2021,
        "latitude": 7.18271,
        "longitude": -5.82323,
        "population": 2461
    },
    {
        "cod_sp": "SP_040_01",
        "nom_sp": "Bazre",
        "cod_dep": "040",
        "annee": 2021,
        "latitude": 6.72443,
        "longitude": -5.48283,
        "population": 14767
    },
    {
        "cod_sp": "SP_040_02",
        "nom_sp": "Kononfla",
        "cod_dep": "040",
        "annee": 2021,
        "latitude": null,
        "longitude": null,
        "population": null
    },
    {
        "cod_sp": "SP_040_03",
        "nom_sp": "Kouetinfla",
        "cod_dep": "040",
        "annee": 2021,
        "latitude": 6.61223,
        "longitude": -6.06037,
        "population": 10872
    },
    {
        "cod_sp": "SP_040_04",
        "nom_sp": "Sinfra",
        "cod_dep": "040",
        "annee": 2021,
        "latitude": 6.65,
        "longitude": -5.74583,
        "population": 245226
    },
    {
        "cod_sp": "SP_050_03",
        "nom_sp": "Kanzra",
        "cod_dep": "050",
        "annee": 2021,
        "latitude": 7.32282,
        "longitude": -6.22237,
        "population": 7347
    },
    {
        "cod_sp": "SP_050_05",
        "nom_sp": "Voueboufla",
        "cod_dep": "050",
        "annee": 2021,
        "latitude": 7.62278,
        "longitude": -5.94855,
        "population": 4158
    },
    {
        "cod_sp": "SP_050_06",
        "nom_sp": "Zanzra",
        "cod_dep": "050",
        "annee": 2021,
        "latitude": 7.47962,
        "longitude": -6.21069,
        "population": 3580
    },
    {
        "cod_sp": "SP_050_07",
        "nom_sp": "Zuenoula",
        "cod_dep": "050",
        "annee": 2021,
        "latitude": 7.43027,
        "longitude": -6.05054,
        "population": 44097
    },
    {
        "cod_sp": "SP_109_01",
        "nom_sp": "Bonon",
        "cod_dep": "109",
        "annee": 2021,
        "latitude": 6.9268,
        "longitude": -6.0489,
        "population": 119938
    },
    {
        "cod_sp": "SP_109_02",
        "nom_sp": "Zaguieta",
        "cod_dep": "109",
        "annee": 2021,
        "latitude": 6.78815,
        "longitude": -6.06288,
        "population": 12690
    },
    {
        "cod_sp": "SP_110_01",
        "nom_sp": "Gohitafla",
        "cod_dep": "110",
        "annee": 2021,
        "latitude": 7.49076,
        "longitude": -5.87952,
        "population": 12519
    },
    {
        "cod_sp": "SP_110_02",
        "nom_sp": "Iriefla",
        "cod_dep": "110",
        "annee": 2021,
        "latitude": 7.68645,
        "longitude": -5.85026,
        "population": 3903
    },
    {
        "cod_sp": "SP_110_03",
        "nom_sp": "Maminigui",
        "cod_dep": "110",
        "annee": 2021,
        "latitude": 7.40183,
        "longitude": -5.84077,
        "population": 6895
    },
    {
        "cod_sp": "SP_003_01",
        "nom_sp": "Aboisso",
        "cod_dep": "003",
        "annee": 2021,
        "latitude": 5.625,
        "longitude": -3.15417,
        "population": 361842
    },
    {
        "cod_sp": "SP_003_02",
        "nom_sp": "Adaou",
        "cod_dep": "003",
        "annee": 2021,
        "latitude": 5.42783,
        "longitude": -3.26443,
        "population": 7898
    },
    {
        "cod_sp": "SP_003_03",
        "nom_sp": "Adjouan",
        "cod_dep": "003",
        "annee": 2021,
        "latitude": 5.30995,
        "longitude": -3.15232,
        "population": 4273
    },
    {
        "cod_sp": "SP_003_04",
        "nom_sp": "Ayame",
        "cod_dep": "003",
        "annee": 2021,
        "latitude": 5.6052,
        "longitude": -3.15709,
        "population": 11149
    },
    {
        "cod_sp": "SP_003_05",
        "nom_sp": "Bianouan",
        "cod_dep": "003",
        "annee": 2021,
        "latitude": 6.01203,
        "longitude": -3.19024,
        "population": 17561
    },
    {
        "cod_sp": "SP_003_06",
        "nom_sp": "Kouakro",
        "cod_dep": "003",
        "annee": 2021,
        "latitude": 7.83652,
        "longitude": -5.07733,
        "population": 0
    },
    {
        "cod_sp": "SP_003_07",
        "nom_sp": "Mafere",
        "cod_dep": "003",
        "annee": 2021,
        "latitude": 5.4151,
        "longitude": -3.03006,
        "population": 17008
    },
    {
        "cod_sp": "SP_003_08",
        "nom_sp": "Yaou",
        "cod_dep": "003",
        "annee": 2021,
        "latitude": 5.24633,
        "longitude": -3.62791,
        "population": 0
    },
    {
        "cod_sp": "SP_051_01",
        "nom_sp": "Adiake",
        "cod_dep": "051",
        "annee": 2021,
        "latitude": 5.28634,
        "longitude": -3.30403,
        "population": 24701
    },
    {
        "cod_sp": "SP_051_02",
        "nom_sp": "Assinie",
        "cod_dep": "051",
        "annee": 2021,
        "latitude": 5.13965,
        "longitude": -3.32231,
        "population": 0
    },
    {
        "cod_sp": "SP_051_03",
        "nom_sp": "Etueboue",
        "cod_dep": "051",
        "annee": 2021,
        "latitude": 5.21101,
        "longitude": -3.21473,
        "population": 2377
    },
    {
        "cod_sp": "SP_055_01",
        "nom_sp": "Bongo",
        "cod_dep": "055",
        "annee": 2021,
        "latitude": 5.50323,
        "longitude": -3.51114,
        "population": 0
    },
    {
        "cod_sp": "SP_055_02",
        "nom_sp": "Bonoua",
        "cod_dep": "055",
        "annee": 2021,
        "latitude": 5.27247,
        "longitude": -3.59625,
        "population": 49434
    },
    {
        "cod_sp": "SP_055_03",
        "nom_sp": "Grand-Bassam",
        "cod_dep": "055",
        "annee": 2021,
        "latitude": 5.30417,
        "longitude": -3.5375,
        "population": 267103
    },
    {
        "cod_sp": "SP_092_01",
        "nom_sp": "Noe",
        "cod_dep": "092",
        "annee": 2021,
        "latitude": 4.63879,
        "longitude": -7.55555,
        "population": 0
    },
    {
        "cod_sp": "SP_092_02",
        "nom_sp": "Nouamou",
        "cod_dep": "092",
        "annee": 2021,
        "latitude": 5.18059,
        "longitude": -2.89751,
        "population": 2767
    },
    {
        "cod_sp": "SP_092_03",
        "nom_sp": "Tiapoum",
        "cod_dep": "092",
        "annee": 2021,
        "latitude": 5.13622,
        "longitude": -3.02308,
        "population": 5920
    },
    {
        "cod_sp": "SP_039_01",
        "nom_sp": "Bobi",
        "cod_dep": "039",
        "annee": 2021,
        "latitude": 7.05,
        "longitude": -7.06667,
        "population": 0
    },
    {
        "cod_sp": "SP_039_02",
        "nom_sp": "Diarabana",
        "cod_dep": "039",
        "annee": 2021,
        "latitude": 8.18668,
        "longitude": -6.60866,
        "population": 10815
    },
    {
        "cod_sp": "SP_039_03",
        "nom_sp": "Dualla",
        "cod_dep": "039",
        "annee": 2021,
        "latitude": 8.12398,
        "longitude": -6.54099,
        "population": 2482
    },
    {
        "cod_sp": "SP_039_04",
        "nom_sp": "Kamalo",
        "cod_dep": "039",
        "annee": 2021,
        "latitude": 7.76853,
        "longitude": -7.10872,
        "population": 0
    },
    {
        "cod_sp": "SP_039_05",
        "nom_sp": "Massala",
        "cod_dep": "039",
        "annee": 2021,
        "latitude": 7.89888,
        "longitude": -6.43716,
        "population": 4130
    },
    {
        "cod_sp": "SP_039_06",
        "nom_sp": "Seguela",
        "cod_dep": "039",
        "annee": 2021,
        "latitude": 7.96111,
        "longitude": -6.67306,
        "population": 103980
    },
    {
        "cod_sp": "SP_039_07",
        "nom_sp": "Sifie",
        "cod_dep": "039",
        "annee": 2021,
        "latitude": 7.98139,
        "longitude": -6.92722,
        "population": 4073
    },
    {
        "cod_sp": "SP_039_08",
        "nom_sp": "Worofla",
        "cod_dep": "039",
        "annee": 2021,
        "latitude": 8.27335,
        "longitude": -6.90555,
        "population": 2321
    },
    {
        "cod_sp": "SP_080_01",
        "nom_sp": "Djibrosso",
        "cod_dep": "080",
        "annee": 2021,
        "latitude": 8.76968,
        "longitude": -6.99918,
        "population": 5392
    },
    {
        "cod_sp": "SP_080_02",
        "nom_sp": "Fadiadougou",
        "cod_dep": "080",
        "annee": 2021,
        "latitude": 8.7,
        "longitude": -6.62139,
        "population": 5813
    },
    {
        "cod_sp": "SP_080_03",
        "nom_sp": "Kani",
        "cod_dep": "080",
        "annee": 2021,
        "latitude": 8.48364,
        "longitude": -6.6002,
        "population": 0
    },
    {
        "cod_sp": "SP_080_04",
        "nom_sp": "Morondo",
        "cod_dep": "080",
        "annee": 2021,
        "latitude": 8.95152,
        "longitude": -6.78524,
        "population": 4976
    },
    {
        "cod_sp": "SP_021_01",
        "nom_sp": "Chiepo",
        "cod_dep": "021",
        "annee": 2021,
        "latitude": 5.69519,
        "longitude": -5.06251,
        "population": 6963
    },
    {
        "cod_sp": "SP_021_02",
        "nom_sp": "Didoko",
        "cod_dep": "021",
        "annee": 2021,
        "latitude": 6.02111,
        "longitude": -5.31207,
        "population": 9166
    },
    {
        "cod_sp": "SP_021_03",
        "nom_sp": "Divo",
        "cod_dep": "021",
        "annee": 2021,
        "latitude": 5.93333,
        "longitude": -5.25833,
        "population": 571688
    },
    {
        "cod_sp": "SP_021_04",
        "nom_sp": "Hire",
        "cod_dep": "021",
        "annee": 2021,
        "latitude": 6.18878,
        "longitude": -5.29463,
        "population": 41430
    },
    {
        "cod_sp": "SP_021_05",
        "nom_sp": "Nebo",
        "cod_dep": "021",
        "annee": 2021,
        "latitude": 5.93715,
        "longitude": -5.40626,
        "population": 1858
    },
    {
        "cod_sp": "SP_021_06",
        "nom_sp": "Ogoudou",
        "cod_dep": "021",
        "annee": 2021,
        "latitude": 5.89674,
        "longitude": -5.15792,
        "population": 19158
    },
    {
        "cod_sp": "SP_021_07",
        "nom_sp": "Zego",
        "cod_dep": "021",
        "annee": 2021,
        "latitude": 6.14078,
        "longitude": -5.19226,
        "population": 3452
    },
    {
        "cod_sp": "SP_030_01",
        "nom_sp": "Djidji",
        "cod_dep": "030",
        "annee": 2021,
        "latitude": 6.15401,
        "longitude": -5.69333,
        "population": 5075
    },
    {
        "cod_sp": "SP_030_02",
        "nom_sp": "Gagore",
        "cod_dep": "030",
        "annee": 2021,
        "latitude": 6.04931,
        "longitude": -5.62934,
        "population": 3133
    },
    {
        "cod_sp": "SP_030_03",
        "nom_sp": "Goudouko",
        "cod_dep": "030",
        "annee": 2021,
        "latitude": 5.73666,
        "longitude": -5.61581,
        "population": 7811
    },
    {
        "cod_sp": "SP_030_04",
        "nom_sp": "Lakota",
        "cod_dep": "030",
        "annee": 2021,
        "latitude": 5.82917,
        "longitude": -5.70833,
        "population": 334235
    },
    {
        "cod_sp": "SP_030_05",
        "nom_sp": "Niambezaria",
        "cod_dep": "030",
        "annee": 2021,
        "latitude": null,
        "longitude": null,
        "population": null
    },
    {
        "cod_sp": "SP_030_06",
        "nom_sp": "Zikisso",
        "cod_dep": "030",
        "annee": 2021,
        "latitude": 6.06396,
        "longitude": -5.70245,
        "population": 6791
    },
    {
        "cod_sp": "SP_079_01",
        "nom_sp": "Dairo-Didizo",
        "cod_dep": "079",
        "annee": 2021,
        "latitude": null,
        "longitude": null,
        "population": null
    },
    {
        "cod_sp": "SP_079_02",
        "nom_sp": "Guitry",
        "cod_dep": "079",
        "annee": 2021,
        "latitude": 5.51952,
        "longitude": -5.24038,
        "population": 14836
    },
    {
        "cod_sp": "SP_079_03",
        "nom_sp": "Lauzoua",
        "cod_dep": "079",
        "annee": 2021,
        "latitude": 5.20327,
        "longitude": -5.31013,
        "population": 4705
    },
    {
        "cod_sp": "SP_079_04",
        "nom_sp": "Yocoboue",
        "cod_dep": "079",
        "annee": 2021,
        "latitude": null,
        "longitude": null,
        "population": null
    },
    {
        "cod_sp": "SP_005_01",
        "nom_sp": "Aboude",
        "cod_dep": "005",
        "annee": 2021,
        "latitude": 5.89609,
        "longitude": -4.56253,
        "population": 14828
    },
    {
        "cod_sp": "SP_005_02",
        "nom_sp": "Ananguie",
        "cod_dep": "005",
        "annee": 2021,
        "latitude": 6.06649,
        "longitude": -4.47707,
        "population": 0
    },
    {
        "cod_sp": "SP_005_03",
        "nom_sp": "Agboville",
        "cod_dep": "005",
        "annee": 2021,
        "latitude": 5.89583,
        "longitude": -4.28333,
        "population": 384340
    },
    {
        "cod_sp": "SP_005_04",
        "nom_sp": "Attobrou",
        "cod_dep": "005",
        "annee": 2021,
        "latitude": null,
        "longitude": null,
        "population": null
    },
    {
        "cod_sp": "SP_005_05",
        "nom_sp": "Azaguie",
        "cod_dep": "005",
        "annee": 2021,
        "latitude": 5.62984,
        "longitude": -4.08204,
        "population": 17987
    },
    {
        "cod_sp": "SP_005_06",
        "nom_sp": "Cechi",
        "cod_dep": "005",
        "annee": 2021,
        "latitude": null,
        "longitude": null,
        "population": null
    },
    {
        "cod_sp": "SP_005_07",
        "nom_sp": "Grand-Morie",
        "cod_dep": "005",
        "annee": 2021,
        "latitude": 5.98312,
        "longitude": -4.13537,
        "population": 7766
    },
    {
        "cod_sp": "SP_005_08",
        "nom_sp": "Guessiguie",
        "cod_dep": "005",
        "annee": 2021,
        "latitude": null,
        "longitude": null,
        "population": null
    },
    {
        "cod_sp": "SP_005_09",
        "nom_sp": "Loviguie",
        "cod_dep": "005",
        "annee": 2021,
        "latitude": null,
        "longitude": null,
        "population": null
    },
    {
        "cod_sp": "SP_005_10",
        "nom_sp": "Oress-Krobou",
        "cod_dep": "005",
        "annee": 2021,
        "latitude": 5.7324,
        "longitude": -4.3947,
        "population": 7526
    },
    {
        "cod_sp": "SP_005_11",
        "nom_sp": "Rubino",
        "cod_dep": "005",
        "annee": 2021,
        "latitude": 6.07,
        "longitude": -4.31056,
        "population": 18180
    },
    {
        "cod_sp": "SP_045_01",
        "nom_sp": "Gbolouville",
        "cod_dep": "045",
        "annee": 2021,
        "latitude": 5.79408,
        "longitude": -4.66127,
        "population": 16321
    },
    {
        "cod_sp": "SP_045_02",
        "nom_sp": "Morokro",
        "cod_dep": "045",
        "annee": 2021,
        "latitude": 6.0776,
        "longitude": -4.70306,
        "population": 6060
    },
    {
        "cod_sp": "SP_045_03",
        "nom_sp": "N'Douci",
        "cod_dep": "045",
        "annee": 2021,
        "latitude": 5.86383,
        "longitude": -4.7609,
        "population": 35145
    },
    {
        "cod_sp": "SP_045_04",
        "nom_sp": "Tiassale",
        "cod_dep": "045",
        "annee": 2021,
        "latitude": 5.89839,
        "longitude": -4.82293,
        "population": 35090
    },
    {
        "cod_sp": "SP_065_01",
        "nom_sp": "Gomon",
        "cod_dep": "065",
        "annee": 2021,
        "latitude": 5.72358,
        "longitude": -4.44129,
        "population": 12759
    },
    {
        "cod_sp": "SP_065_02",
        "nom_sp": "Sikensi",
        "cod_dep": "065",
        "annee": 2021,
        "latitude": 5.66829,
        "longitude": -4.57371,
        "population": 9473
    },
    {
        "cod_sp": "SP_107_01",
        "nom_sp": "Pacobo",
        "cod_dep": "107",
        "annee": 2021,
        "latitude": 6.16742,
        "longitude": -4.93723,
        "population": 2216
    },
    {
        "cod_sp": "SP_107_02",
        "nom_sp": "Taabo",
        "cod_dep": "107",
        "annee": 2021,
        "latitude": 6.1998,
        "longitude": -5.10884,
        "population": 0
    },
    {
        "cod_sp": "SP_024_01",
        "nom_sp": "Bayota",
        "cod_dep": "024",
        "annee": 2021,
        "latitude": 6.46477,
        "longitude": -5.95427,
        "population": 16298
    },
    {
        "cod_sp": "SP_024_02",
        "nom_sp": "Dahiepa-Kehi",
        "cod_dep": "024",
        "annee": 2021,
        "latitude": 6.21256,
        "longitude": -5.84627,
        "population": 2437
    },
    {
        "cod_sp": "SP_024_03",
        "nom_sp": "Dignago",
        "cod_dep": "024",
        "annee": 2021,
        "latitude": 6.29164,
        "longitude": -6.27945,
        "population": 15621
    },
    {
        "cod_sp": "SP_024_04",
        "nom_sp": "Dougroupalegnoa",
        "cod_dep": "024",
        "annee": 2021,
        "latitude": null,
        "longitude": null,
        "population": null
    },
    {
        "cod_sp": "SP_024_05",
        "nom_sp": "Doukouyo",
        "cod_dep": "024",
        "annee": 2021,
        "latitude": 5.84233,
        "longitude": -5.97134,
        "population": 4472
    },
    {
        "cod_sp": "SP_024_06",
        "nom_sp": "Gagnoa",
        "cod_dep": "024",
        "annee": 2021,
        "latitude": 6.15,
        "longitude": -6.025,
        "population": 724496
    },
    {
        "cod_sp": "SP_024_07",
        "nom_sp": "Galebre",
        "cod_dep": "024",
        "annee": 2021,
        "latitude": 6.0059,
        "longitude": -6.29403,
        "population": 21245
    },
    {
        "cod_sp": "SP_024_08",
        "nom_sp": "Gnagbodougnoa",
        "cod_dep": "024",
        "annee": 2021,
        "latitude": 5.96632,
        "longitude": -5.84337,
        "population": 4808
    },
    {
        "cod_sp": "SP_024_09",
        "nom_sp": "Guiberoua",
        "cod_dep": "024",
        "annee": 2021,
        "latitude": 6.23869,
        "longitude": -6.17147,
        "population": 23371
    },
    {
        "cod_sp": "SP_024_10",
        "nom_sp": "Ouragahio",
        "cod_dep": "024",
        "annee": 2021,
        "latitude": 6.31058,
        "longitude": -5.93473,
        "population": 14587
    },
    {
        "cod_sp": "SP_024_11",
        "nom_sp": "Serihio",
        "cod_dep": "024",
        "annee": 2021,
        "latitude": 5.90051,
        "longitude": -6.11755,
        "population": 8978
    },
    {
        "cod_sp": "SP_024_12",
        "nom_sp": "Yopohue",
        "cod_dep": "024",
        "annee": 2021,
        "latitude": null,
        "longitude": null,
        "population": null
    },
    {
        "cod_sp": "SP_035_01",
        "nom_sp": "Diegonefla",
        "cod_dep": "035",
        "annee": 2021,
        "latitude": 6.28919,
        "longitude": -5.57413,
        "population": 43456
    },
    {
        "cod_sp": "SP_035_02",
        "nom_sp": "Guepahouo",
        "cod_dep": "035",
        "annee": 2021,
        "latitude": null,
        "longitude": null,
        "population": null
    },
    {
        "cod_sp": "SP_035_03",
        "nom_sp": "Oume",
        "cod_dep": "035",
        "annee": 2021,
        "latitude": 6.38309,
        "longitude": -5.41759,
        "population": 58606
    },
    {
        "cod_sp": "SP_035_04",
        "nom_sp": "Tonla",
        "cod_dep": "035",
        "annee": 2021,
        "latitude": 6.35395,
        "longitude": -5.644,
        "population": 9463
    },
    {
        "cod_sp": "SP_026_01",
        "nom_sp": "Bedy-Goazon",
        "cod_dep": "026",
        "annee": 2021,
        "latitude": null,
        "longitude": null,
        "population": null
    },
    {
        "cod_sp": "SP_026_02",
        "nom_sp": "Guiglo",
        "cod_dep": "026",
        "annee": 2021,
        "latitude": 6.44583,
        "longitude": -7.57917,
        "population": 259381
    },
    {
        "cod_sp": "SP_026_03",
        "nom_sp": "Kaade",
        "cod_dep": "026",
        "annee": 2021,
        "latitude": 6.56928,
        "longitude": -7.71427,
        "population": 8883
    },
    {
        "cod_sp": "SP_026_04",
        "nom_sp": "Nizahon",
        "cod_dep": "026",
        "annee": 2021,
        "latitude": null,
        "longitude": null,
        "population": null
    },
    {
        "cod_sp": "SP_058_01",
        "nom_sp": "Bakoubly",
        "cod_dep": "058",
        "annee": 2021,
        "latitude": null,
        "longitude": null,
        "population": null
    },
    {
        "cod_sp": "SP_058_02",
        "nom_sp": "Meo",
        "cod_dep": "058",
        "annee": 2021,
        "latitude": 6.52016,
        "longitude": -8.29522,
        "population": 3437
    },
    {
        "cod_sp": "SP_058_03",
        "nom_sp": "Nezobly",
        "cod_dep": "058",
        "annee": 2021,
        "latitude": 6.59965,
        "longitude": -8.47264,
        "population": 2477
    },
    {
        "cod_sp": "SP_058_04",
        "nom_sp": "Pehe",
        "cod_dep": "058",
        "annee": 2021,
        "latitude": 6.56334,
        "longitude": -8.30405,
        "population": 3290
    },
    {
        "cod_sp": "SP_058_05",
        "nom_sp": "Tiobly",
        "cod_dep": "058",
        "annee": 2021,
        "latitude": 6.5332,
        "longitude": -8.50041,
        "population": 1258
    },
    {
        "cod_sp": "SP_058_06",
        "nom_sp": "Toulepleu",
        "cod_dep": "058",
        "annee": 2021,
        "latitude": 6.57974,
        "longitude": -8.41091,
        "population": 8794
    },
    {
        "cod_sp": "SP_059_01",
        "nom_sp": "Blolequin",
        "cod_dep": "059",
        "annee": 2021,
        "latitude": 6.56913,
        "longitude": -8.00253,
        "population": 41821
    },
    {
        "cod_sp": "SP_059_02",
        "nom_sp": "Diboke",
        "cod_dep": "059",
        "annee": 2021,
        "latitude": 6.44434,
        "longitude": -8.11234,
        "population": 5969
    },
    {
        "cod_sp": "SP_059_03",
        "nom_sp": "Doke",
        "cod_dep": "059",
        "annee": 2021,
        "latitude": 6.59281,
        "longitude": -8.11205,
        "population": 7102
    },
    {
        "cod_sp": "SP_059_04",
        "nom_sp": "Tinhou",
        "cod_dep": "059",
        "annee": 2021,
        "latitude": 6.43832,
        "longitude": -8.1561,
        "population": 6961
    },
    {
        "cod_sp": "SP_059_05",
        "nom_sp": "Zeaglo",
        "cod_dep": "059",
        "annee": 2021,
        "latitude": 6.56297,
        "longitude": -7.8172,
        "population": 15873
    },
    {
        "cod_sp": "SP_108_01",
        "nom_sp": "Tai",
        "cod_dep": "108",
        "annee": 2021,
        "latitude": 5.87366,
        "longitude": -7.45519,
        "population": 7670
    },
    {
        "cod_sp": "SP_108_02",
        "nom_sp": "Zagne",
        "cod_dep": "108",
        "annee": 2021,
        "latitude": 6.21016,
        "longitude": -7.48284,
        "population": 63341
    },
    {
        "cod_sp": "SP_046_01",
        "nom_sp": "Dioman",
        "cod_dep": "046",
        "annee": 2021,
        "latitude": 8.13276,
        "longitude": -7.54529,
        "population": 1018
    },
    {
        "cod_sp": "SP_046_02",
        "nom_sp": "Foungbesso",
        "cod_dep": "046",
        "annee": 2021,
        "latitude": null,
        "longitude": null,
        "population": null
    },
    {
        "cod_sp": "SP_046_03",
        "nom_sp": "Guinteguela",
        "cod_dep": "046",
        "annee": 2021,
        "latitude": 8.29044,
        "longitude": -7.30927,
        "population": 5543
    },
    {
        "cod_sp": "SP_046_04",
        "nom_sp": "Touba",
        "cod_dep": "046",
        "annee": 2021,
        "latitude": 8.225,
        "longitude": -7.45833,
        "population": 120524
    },
    {
        "cod_sp": "SP_082_01",
        "nom_sp": "Booko",
        "cod_dep": "082",
        "annee": 2021,
        "latitude": null,
        "longitude": null,
        "population": null
    },
    {
        "cod_sp": "SP_082_02",
        "nom_sp": "Borotou",
        "cod_dep": "082",
        "annee": 2021,
        "latitude": 8.7347,
        "longitude": -7.49237,
        "population": 2855
    },
    {
        "cod_sp": "SP_082_03",
        "nom_sp": "Koro",
        "cod_dep": "082",
        "annee": 2021,
        "latitude": 9.89498,
        "longitude": -6.59756,
        "population": 1930
    },
    {
        "cod_sp": "SP_082_04",
        "nom_sp": "Mahandougou",
        "cod_dep": "082",
        "annee": 2021,
        "latitude": 10.14302,
        "longitude": -5.18369,
        "population": 1125
    },
    {
        "cod_sp": "SP_082_05",
        "nom_sp": "Niokosso",
        "cod_dep": "082",
        "annee": 2021,
        "latitude": 8.68795,
        "longitude": -7.67069,
        "population": 2647
    },
    {
        "cod_sp": "SP_087_01",
        "nom_sp": "Gbelo",
        "cod_dep": "087",
        "annee": 2021,
        "latitude": 7.92074,
        "longitude": -6.98255,
        "population": 1396
    },
    {
        "cod_sp": "SP_087_02",
        "nom_sp": "Gouekan",
        "cod_dep": "087",
        "annee": 2021,
        "latitude": 8.03399,
        "longitude": -7.84075,
        "population": 937
    },
    {
        "cod_sp": "SP_087_03",
        "nom_sp": "Koonan",
        "cod_dep": "087",
        "annee": 2021,
        "latitude": 8.3625,
        "longitude": -7.97,
        "population": 0
    },
    {
        "cod_sp": "SP_087_04",
        "nom_sp": "Ouaninou",
        "cod_dep": "087",
        "annee": 2021,
        "latitude": 8.2379,
        "longitude": -7.86638,
        "population": 8943
    },
    {
        "cod_sp": "SP_087_05",
        "nom_sp": "Saboudougou",
        "cod_dep": "087",
        "annee": 2021,
        "latitude": null,
        "longitude": null,
        "population": null
    },
    {
        "cod_sp": "SP_087_06",
        "nom_sp": "Santa",
        "cod_dep": "087",
        "annee": 2021,
        "latitude": 7.66389,
        "longitude": -7.84778,
        "population": 6874
    },
    {
        "cod_sp": "SP_015_01",
        "nom_sp": "Baya",
        "cod_dep": "015",
        "annee": 2021,
        "latitude": 9.90531,
        "longitude": -6.24781,
        "population": 4364
    },
    {
        "cod_sp": "SP_015_02",
        "nom_sp": "Boundiali",
        "cod_dep": "015",
        "annee": 2021,
        "latitude": 9.475,
        "longitude": -6.37917,
        "population": 198541
    },
    {
        "cod_sp": "SP_015_03",
        "nom_sp": "Ganaoni",
        "cod_dep": "015",
        "annee": 2021,
        "latitude": 9.28498,
        "longitude": -6.32285,
        "population": 3658
    },
    {
        "cod_sp": "SP_015_04",
        "nom_sp": "Kassere",
        "cod_dep": "015",
        "annee": 2021,
        "latitude": 9.82723,
        "longitude": -6.2167,
        "population": 10255
    },
    {
        "cod_sp": "SP_015_05",
        "nom_sp": "Siempurgo",
        "cod_dep": "015",
        "annee": 2021,
        "latitude": 9.51953,
        "longitude": -6.19408,
        "population": 4290
    },
    {
        "cod_sp": "SP_044_01",
        "nom_sp": "Debete",
        "cod_dep": "044",
        "annee": 2021,
        "latitude": null,
        "longitude": null,
        "population": null
    },
    {
        "cod_sp": "SP_044_02",
        "nom_sp": "Kanakono",
        "cod_dep": "044",
        "annee": 2021,
        "latitude": 10.35497,
        "longitude": -6.23634,
        "population": 13127
    },
    {
        "cod_sp": "SP_044_03",
        "nom_sp": "Papara",
        "cod_dep": "044",
        "annee": 2021,
        "latitude": 10.62433,
        "longitude": -6.25347,
        "population": 2934
    },
    {
        "cod_sp": "SP_044_04",
        "nom_sp": "Tengrela",
        "cod_dep": "044",
        "annee": 2021,
        "latitude": 10.44167,
        "longitude": -6.4125,
        "population": 141761
    },
    {
        "cod_sp": "SP_083_01",
        "nom_sp": "Blessegue",
        "cod_dep": "083",
        "annee": 2021,
        "latitude": 10.19833,
        "longitude": -6.40778,
        "population": 7160
    },
    {
        "cod_sp": "SP_083_02",
        "nom_sp": "Gbon",
        "cod_dep": "083",
        "annee": 2021,
        "latitude": 9.83238,
        "longitude": -6.44716,
        "population": 12464
    },
    {
        "cod_sp": "SP_083_03",
        "nom_sp": "Kolia",
        "cod_dep": "083",
        "annee": 2021,
        "latitude": 7.49869,
        "longitude": -3.22063,
        "population": 3006
    },
    {
        "cod_sp": "SP_083_04",
        "nom_sp": "Kouto",
        "cod_dep": "083",
        "annee": 2021,
        "latitude": 9.98462,
        "longitude": -6.39619,
        "population": 55893
    },
    {
        "cod_sp": "SP_083_05",
        "nom_sp": "Sianhala",
        "cod_dep": "083",
        "annee": 2021,
        "latitude": null,
        "longitude": null,
        "population": null
    },
    {
        "cod_sp": "SP_047_01",
        "nom_sp": "Angoda",
        "cod_dep": "047",
        "annee": 2021,
        "latitude": 6.67795,
        "longitude": -5.02275,
        "population": 3903
    },
    {
        "cod_sp": "SP_047_02",
        "nom_sp": "Kokumbo",
        "cod_dep": "047",
        "annee": 2021,
        "latitude": null,
        "longitude": null,
        "population": null
    },
    {
        "cod_sp": "SP_047_03",
        "nom_sp": "Kpouebo",
        "cod_dep": "047",
        "annee": 2021,
        "latitude": 6.33441,
        "longitude": -4.85618,
        "population": 6709
    },
    {
        "cod_sp": "SP_047_04",
        "nom_sp": "Toumodi",
        "cod_dep": "047",
        "annee": 2021,
        "latitude": 6.52083,
        "longitude": -4.96667,
        "population": 168363
    },
    {
        "cod_sp": "SP_057_01",
        "nom_sp": "Lomokankro",
        "cod_dep": "057",
        "annee": 2021,
        "latitude": null,
        "longitude": null,
        "population": null
    },
    {
        "cod_sp": "SP_057_02",
        "nom_sp": "Molonou",
        "cod_dep": "057",
        "annee": 2021,
        "latitude": 7.15831,
        "longitude": -5.36694,
        "population": 3511
    },
    {
        "cod_sp": "SP_057_03",
        "nom_sp": "Tiebissou",
        "cod_dep": "057",
        "annee": 2021,
        "latitude": 7.40186,
        "longitude": -5.6644,
        "population": 0
    },
    {
        "cod_sp": "SP_057_04",
        "nom_sp": "Yakpabo-Sakassou",
        "cod_dep": "057",
        "annee": 2021,
        "latitude": 6.92752,
        "longitude": -4.8869,
        "population": 1460
    },
    {
        "cod_sp": "SP_061_01",
        "nom_sp": "Boli",
        "cod_dep": "061",
        "annee": 2021,
        "latitude": 7.22648,
        "longitude": -4.80666,
        "population": 9386
    },
    {
        "cod_sp": "SP_061_02",
        "nom_sp": "Didievi",
        "cod_dep": "061",
        "annee": 2021,
        "latitude": 7.12866,
        "longitude": -4.89804,
        "population": 10262
    },
    {
        "cod_sp": "SP_061_03",
        "nom_sp": "Molonou Ble",
        "cod_dep": "061",
        "annee": 2021,
        "latitude": null,
        "longitude": null,
        "population": null
    },
    {
        "cod_sp": "SP_061_04",
        "nom_sp": "Raviart",
        "cod_dep": "061",
        "annee": 2021,
        "latitude": 7.40422,
        "longitude": -4.88668,
        "population": 7838
    },
    {
        "cod_sp": "SP_061_05",
        "nom_sp": "Tie-N'Diekro",
        "cod_dep": "061",
        "annee": 2021,
        "latitude": 7.42775,
        "longitude": -4.76586,
        "population": 3166
    },
    {
        "cod_sp": "SP_098_01",
        "nom_sp": "Bonikro",
        "cod_dep": "098",
        "annee": 2021,
        "latitude": 6.24264,
        "longitude": -4.47948,
        "population": 1980
    },
    {
        "cod_sp": "SP_098_02",
        "nom_sp": "Djekanou",
        "cod_dep": "098",
        "annee": 2021,
        "latitude": 6.48389,
        "longitude": -5.11553,
        "population": 5160
    },
    {
        "cod_sp": "SP_032_01",
        "nom_sp": "Bouandougou",
        "cod_dep": "032",
        "annee": 2021,
        "latitude": 8.21598,
        "longitude": -5.66962,
        "population": 13665
    },
    {
        "cod_sp": "SP_032_02",
        "nom_sp": "Mankono",
        "cod_dep": "032",
        "annee": 2021,
        "latitude": 8.25417,
        "longitude": -5.92917,
        "population": 271894
    },
    {
        "cod_sp": "SP_032_03",
        "nom_sp": "Marhandallah",
        "cod_dep": "032",
        "annee": 2021,
        "latitude": null,
        "longitude": null,
        "population": null
    },
    {
        "cod_sp": "SP_032_04",
        "nom_sp": "Sarhala",
        "cod_dep": "032",
        "annee": 2021,
        "latitude": 8.41789,
        "longitude": -6.17147,
        "population": 5702
    },
    {
        "cod_sp": "SP_032_05",
        "nom_sp": "Tieningboue",
        "cod_dep": "032",
        "annee": 2021,
        "latitude": 8.17838,
        "longitude": -5.72147,
        "population": 9692
    },
    {
        "cod_sp": "SP_069_01",
        "nom_sp": "Kongasso",
        "cod_dep": "069",
        "annee": 2021,
        "latitude": null,
        "longitude": null,
        "population": null
    },
    {
        "cod_sp": "SP_069_02",
        "nom_sp": "Kounahiri",
        "cod_dep": "069",
        "annee": 2021,
        "latitude": 7.79297,
        "longitude": -5.83232,
        "population": 101111
    },
    {
        "cod_sp": "SP_097_01",
        "nom_sp": "Dianra",
        "cod_dep": "097",
        "annee": 2021,
        "latitude": 8.94333,
        "longitude": -6.2549,
        "population": 33548
    },
    {
        "cod_sp": "SP_097_02",
        "nom_sp": "Dianra Village",
        "cod_dep": "097",
        "annee": 2021,
        "latitude": 8.76437,
        "longitude": -6.24411,
        "population": 14028
    },
    {
        "cod_sp": "SP_014_01",
        "nom_sp": "Bouko",
        "cod_dep": "014",
        "annee": 2021,
        "latitude": 7.76808,
        "longitude": -3.39218,
        "population": 0
    },
    {
        "cod_sp": "SP_014_02",
        "nom_sp": "Bouna",
        "cod_dep": "014",
        "annee": 2021,
        "latitude": 9.1375,
        "longitude": -2.95,
        "population": 178081
    },
    {
        "cod_sp": "SP_014_03",
        "nom_sp": "Ondefidouo",
        "cod_dep": "014",
        "annee": 2021,
        "latitude": 9.04384,
        "longitude": -3.08297,
        "population": 5552
    },
    {
        "cod_sp": "SP_014_04",
        "nom_sp": "Youndouo",
        "cod_dep": "014",
        "annee": 2021,
        "latitude": 8.82541,
        "longitude": -2.95745,
        "population": 4717
    },
    {
        "cod_sp": "SP_063_01",
        "nom_sp": "Bogofa",
        "cod_dep": "063",
        "annee": 2021,
        "latitude": null,
        "longitude": null,
        "population": null
    },
    {
        "cod_sp": "SP_063_02",
        "nom_sp": "Kotouba",
        "cod_dep": "063",
        "annee": 2021,
        "latitude": 9.62159,
        "longitude": -7.60821,
        "population": 0
    },
    {
        "cod_sp": "SP_063_03",
        "nom_sp": "Kakpin",
        "cod_dep": "063",
        "annee": 2021,
        "latitude": 8.65508,
        "longitude": -3.78122,
        "population": 1155
    },
    {
        "cod_sp": "SP_063_04",
        "nom_sp": "Nassian",
        "cod_dep": "063",
        "annee": 2021,
        "latitude": 9.39755,
        "longitude": -4.47993,
        "population": 1505
    },
    {
        "cod_sp": "SP_063_05",
        "nom_sp": "Sominasse",
        "cod_dep": "063",
        "annee": 2021,
        "latitude": null,
        "longitude": null,
        "population": null
    },
    {
        "cod_sp": "SP_076_01",
        "nom_sp": "Danoa",
        "cod_dep": "076",
        "annee": 2021,
        "latitude": 9.68844,
        "longitude": -3.07943,
        "population": 744
    },
    {
        "cod_sp": "SP_076_02",
        "nom_sp": "Doropo",
        "cod_dep": "076",
        "annee": 2021,
        "latitude": 9.80955,
        "longitude": -3.34577,
        "population": 48225
    },
    {
        "cod_sp": "SP_076_03",
        "nom_sp": "Kalamon",
        "cod_dep": "076",
        "annee": 2021,
        "latitude": 9.82285,
        "longitude": -3.16533,
        "population": 2520
    },
    {
        "cod_sp": "SP_076_04",
        "nom_sp": "Niamoue",
        "cod_dep": "076",
        "annee": 2021,
        "latitude": 5.87925,
        "longitude": -4.82481,
        "population": 3428
    },
    {
        "cod_sp": "SP_091_01",
        "nom_sp": "Gogo",
        "cod_dep": "091",
        "annee": 2021,
        "latitude": 9.7714,
        "longitude": -3.53092,
        "population": 1304
    },
    {
        "cod_sp": "SP_091_02",
        "nom_sp": "Tehini",
        "cod_dep": "091",
        "annee": 2021,
        "latitude": 9.60542,
        "longitude": -3.65804,
        "population": 3461
    },
    {
        "cod_sp": "SP_091_03",
        "nom_sp": "Tougbo",
        "cod_dep": "091",
        "annee": 2021,
        "latitude": 9.76377,
        "longitude": -4.14091,
        "population": 3634
    },
    {
        "cod_sp": "SP_068_01",
        "nom_sp": "Kimbirila-Nord",
        "cod_dep": "068",
        "annee": 2021,
        "latitude": null,
        "longitude": null,
        "population": null
    },
    {
        "cod_sp": "SP_068_02",
        "nom_sp": "Minignan",
        "cod_dep": "068",
        "annee": 2021,
        "latitude": 10.13333,
        "longitude": -7.6875,
        "population": 61637
    },
    {
        "cod_sp": "SP_068_03",
        "nom_sp": "Sokoro",
        "cod_dep": "068",
        "annee": 2021,
        "latitude": 7.84472,
        "longitude": -4.94833,
        "population": 672
    },
    {
        "cod_sp": "SP_068_04",
        "nom_sp": "Tienko",
        "cod_dep": "068",
        "annee": 2021,
        "latitude": 10.22472,
        "longitude": -7.4825,
        "population": 3952
    },
    {
        "cod_sp": "SP_081_01",
        "nom_sp": "Goulia",
        "cod_dep": "081",
        "annee": 2021,
        "latitude": 10.01908,
        "longitude": -7.20108,
        "population": 4050
    },
    {
        "cod_sp": "SP_081_02",
        "nom_sp": "Kaniasso",
        "cod_dep": "081",
        "annee": 2021,
        "latitude": 9.81471,
        "longitude": -7.5125,
        "population": 3299
    },
    {
        "cod_sp": "SP_081_03",
        "nom_sp": "Mahandiana-Sokourani",
        "cod_dep": "081",
        "annee": 2021,
        "latitude": null,
        "longitude": null,
        "population": null
    },
    {
        "cod_sp": "SP_038_01",
        "nom_sp": "Dakpadou",
        "cod_dep": "038",
        "annee": 2021,
        "latitude": 5.25664,
        "longitude": -6.06774,
        "population": 14825
    },
    {
        "cod_sp": "SP_038_02",
        "nom_sp": "Grihiri",
        "cod_dep": "038",
        "annee": 2021,
        "latitude": 5.41588,
        "longitude": -6.3768,
        "population": 0
    },
    {
        "cod_sp": "SP_038_03",
        "nom_sp": "Lobakuya",
        "cod_dep": "038",
        "annee": 2021,
        "latitude": 5.09053,
        "longitude": -6.34438,
        "population": 18713
    },
    {
        "cod_sp": "SP_038_04",
        "nom_sp": "Medon",
        "cod_dep": "038",
        "annee": 2021,
        "latitude": 5.20687,
        "longitude": -6.21691,
        "population": 4495
    },
    {
        "cod_sp": "SP_038_05",
        "nom_sp": "Sago",
        "cod_dep": "038",
        "annee": 2021,
        "latitude": 5.267,
        "longitude": -5.91611,
        "population": 9775
    },
    {
        "cod_sp": "SP_038_06",
        "nom_sp": "Sassandra",
        "cod_dep": "038",
        "annee": 2021,
        "latitude": 5.24583,
        "longitude": -6.125,
        "population": 353228
    },
    {
        "cod_sp": "SP_077_01",
        "nom_sp": "Dahiri",
        "cod_dep": "077",
        "annee": 2021,
        "latitude": 5.26206,
        "longitude": -5.52897,
        "population": 10885
    },
    {
        "cod_sp": "SP_077_02",
        "nom_sp": "Fresco",
        "cod_dep": "077",
        "annee": 2021,
        "latitude": 5.11541,
        "longitude": -5.67962,
        "population": 0
    },
    {
        "cod_sp": "SP_077_03",
        "nom_sp": "Gbagbam",
        "cod_dep": "077",
        "annee": 2021,
        "latitude": null,
        "longitude": null,
        "population": null
    },
    {
        "cod_sp": "SP_025_01",
        "nom_sp": "Ahouanou",
        "cod_dep": "025",
        "annee": 2021,
        "latitude": 5.50565,
        "longitude": -4.8588,
        "population": 33939
    },
    {
        "cod_sp": "SP_025_02",
        "nom_sp": "Bacanda",
        "cod_dep": "025",
        "annee": 2021,
        "latitude": 5.63331,
        "longitude": -4.87758,
        "population": 11892
    },
    {
        "cod_sp": "SP_025_03",
        "nom_sp": "Ebonou",
        "cod_dep": "025",
        "annee": 2021,
        "latitude": null,
        "longitude": null,
        "population": null
    },
    {
        "cod_sp": "SP_025_04",
        "nom_sp": "Grand-Lahou",
        "cod_dep": "025",
        "annee": 2021,
        "latitude": 5.425,
        "longitude": -4.89167,
        "population": 155832
    },
    {
        "cod_sp": "SP_025_05",
        "nom_sp": "Toukouzou",
        "cod_dep": "025",
        "annee": 2021,
        "latitude": 5.15341,
        "longitude": -4.79233,
        "population": 1939
    },
    {
        "cod_sp": "SP_054_01",
        "nom_sp": "Dabou",
        "cod_dep": "054",
        "annee": 2021,
        "latitude": 5.4,
        "longitude": -4.52917,
        "population": 213582
    },
    {
        "cod_sp": "SP_054_02",
        "nom_sp": "Lopou",
        "cod_dep": "054",
        "annee": 2021,
        "latitude": 5.42176,
        "longitude": -4.46967,
        "population": 9587
    },
    {
        "cod_sp": "SP_054_03",
        "nom_sp": "Toupah",
        "cod_dep": "054",
        "annee": 2021,
        "latitude": 5.31891,
        "longitude": -4.56552,
        "population": 5330
    },
    {
        "cod_sp": "SP_056_01",
        "nom_sp": "Attoutou A",
        "cod_dep": "056",
        "annee": 2021,
        "latitude": null,
        "longitude": null,
        "population": null
    },
    {
        "cod_sp": "SP_056_02",
        "nom_sp": "Jacqueville",
        "cod_dep": "056",
        "annee": 2021,
        "latitude": 5.2375,
        "longitude": -4.50833,
        "population": 80593
    },
    {
        "cod_sp": "SP_007_01",
        "nom_sp": "Bangolo",
        "cod_dep": "007",
        "annee": 2021,
        "latitude": 7.025,
        "longitude": -7.47083,
        "population": 270629
    },
    {
        "cod_sp": "SP_007_02",
        "nom_sp": "Beoue-Zibiao",
        "cod_dep": "007",
        "annee": 2021,
        "latitude": null,
        "longitude": null,
        "population": null
    },
    {
        "cod_sp": "SP_007_03",
        "nom_sp": "Blenimeouin",
        "cod_dep": "007",
        "annee": 2021,
        "latitude": 7.13333,
        "longitude": -7.18333,
        "population": 19689
    },
    {
        "cod_sp": "SP_007_04",
        "nom_sp": "Dieouzon",
        "cod_dep": "007",
        "annee": 2021,
        "latitude": 7.15575,
        "longitude": -7.32219,
        "population": 6480
    },
    {
        "cod_sp": "SP_007_05",
        "nom_sp": "Gohouo-Zagna",
        "cod_dep": "007",
        "annee": 2021,
        "latitude": 7.05287,
        "longitude": -7.39155,
        "population": 0
    },
    {
        "cod_sp": "SP_007_06",
        "nom_sp": "Guinglo-Tahouake",
        "cod_dep": "007",
        "annee": 2021,
        "latitude": null,
        "longitude": null,
        "population": null
    },
    {
        "cod_sp": "SP_007_07",
        "nom_sp": "Kahin-Zarabaon",
        "cod_dep": "007",
        "annee": 2021,
        "latitude": null,
        "longitude": null,
        "population": null
    },
    {
        "cod_sp": "SP_007_08",
        "nom_sp": "Zeo",
        "cod_dep": "007",
        "annee": 2021,
        "latitude": 7.12039,
        "longitude": -7.46935,
        "population": 3160
    },
    {
        "cod_sp": "SP_007_09",
        "nom_sp": "Zou",
        "cod_dep": "007",
        "annee": 2021,
        "latitude": 6.97647,
        "longitude": -7.79834,
        "population": 25210
    },
    {
        "cod_sp": "SP_022_01",
        "nom_sp": "Bagohouo",
        "cod_dep": "022",
        "annee": 2021,
        "latitude": 6.89011,
        "longitude": -7.19282,
        "population": 13441
    },
    {
        "cod_sp": "SP_022_02",
        "nom_sp": "Duekoue",
        "cod_dep": "022",
        "annee": 2021,
        "latitude": 6.74202,
        "longitude": -7.34918,
        "population": 117023
    },
    {
        "cod_sp": "SP_022_03",
        "nom_sp": "Gbapleu",
        "cod_dep": "022",
        "annee": 2021,
        "latitude": 6.47983,
        "longitude": -7.16528,
        "population": 28802
    },
    {
        "cod_sp": "SP_022_04",
        "nom_sp": "Guehiebly",
        "cod_dep": "022",
        "annee": 2021,
        "latitude": null,
        "longitude": null,
        "population": null
    },
    {
        "cod_sp": "SP_022_05",
        "nom_sp": "Guezon",
        "cod_dep": "022",
        "annee": 2021,
        "latitude": 6.56738,
        "longitude": -7.73418,
        "population": 0
    },
    {
        "cod_sp": "SP_062_01",
        "nom_sp": "Kouibly",
        "cod_dep": "062",
        "annee": 2021,
        "latitude": 7.22778,
        "longitude": -7.29815,
        "population": 0
    },
    {
        "cod_sp": "SP_062_02",
        "nom_sp": "Nidrou",
        "cod_dep": "062",
        "annee": 2021,
        "latitude": 6.90202,
        "longitude": -7.18141,
        "population": 7280
    },
    {
        "cod_sp": "SP_062_03",
        "nom_sp": "Ouyably-Gnondrou",
        "cod_dep": "062",
        "annee": 2021,
        "latitude": null,
        "longitude": null,
        "population": null
    },
    {
        "cod_sp": "SP_062_04",
        "nom_sp": "Totrodrou",
        "cod_dep": "062",
        "annee": 2021,
        "latitude": null,
        "longitude": null,
        "population": null
    },
    {
        "cod_sp": "SP_099_01",
        "nom_sp": "Facobly",
        "cod_dep": "099",
        "annee": 2021,
        "latitude": 7.37203,
        "longitude": -7.41851,
        "population": 0
    },
    {
        "cod_sp": "SP_099_02",
        "nom_sp": "Guezon",
        "cod_dep": "099",
        "annee": 2021,
        "latitude": 6.56738,
        "longitude": -7.73418,
        "population": 0
    },
    {
        "cod_sp": "SP_099_03",
        "nom_sp": "Koua",
        "cod_dep": "099",
        "annee": 2021,
        "latitude": 7.50571,
        "longitude": -7.27025,
        "population": 2450
    },
    {
        "cod_sp": "SP_099_04",
        "nom_sp": "Semien",
        "cod_dep": "099",
        "annee": 2021,
        "latitude": 7.61419,
        "longitude": -7.12955,
        "population": 13762
    },
    {
        "cod_sp": "SP_099_05",
        "nom_sp": "Tieny-Siably",
        "cod_dep": "099",
        "annee": 2021,
        "latitude": null,
        "longitude": null,
        "population": null
    },
    {
        "cod_sp": "SP_016_01",
        "nom_sp": "Bassawa",
        "cod_dep": "016",
        "annee": 2021,
        "latitude": null,
        "longitude": null,
        "population": null
    },
    {
        "cod_sp": "SP_016_02",
        "nom_sp": "Bonieredougou",
        "cod_dep": "016",
        "annee": 2021,
        "latitude": 8.37683,
        "longitude": -4.72083,
        "population": 3891
    },
    {
        "cod_sp": "SP_016_03",
        "nom_sp": "Dabakala",
        "cod_dep": "016",
        "annee": 2021,
        "latitude": 8.3875,
        "longitude": -4.45,
        "population": 254430
    },
    {
        "cod_sp": "SP_016_04",
        "nom_sp": "Foumbolo",
        "cod_dep": "016",
        "annee": 2021,
        "latitude": 8.64189,
        "longitude": -4.64539,
        "population": 4132
    },
    {
        "cod_sp": "SP_016_05",
        "nom_sp": "Niemene",
        "cod_dep": "016",
        "annee": 2021,
        "latitude": 8.45702,
        "longitude": -4.68838,
        "population": 3855
    },
    {
        "cod_sp": "SP_016_06",
        "nom_sp": "Satama-Sokoro",
        "cod_dep": "016",
        "annee": 2021,
        "latitude": 7.89806,
        "longitude": -4.53012,
        "population": 4268
    },
    {
        "cod_sp": "SP_016_07",
        "nom_sp": "Satama-Sokoura",
        "cod_dep": "016",
        "annee": 2021,
        "latitude": 7.89975,
        "longitude": -4.3636,
        "population": 4679
    },
    {
        "cod_sp": "SP_016_08",
        "nom_sp": "Sokala-Sobara",
        "cod_dep": "016",
        "annee": 2021,
        "latitude": 8.44227,
        "longitude": -4.5141,
        "population": 3208
    },
    {
        "cod_sp": "SP_016_09",
        "nom_sp": "Tiendene-Bambarasso",
        "cod_dep": "016",
        "annee": 2021,
        "latitude": null,
        "longitude": null,
        "population": null
    },
    {
        "cod_sp": "SP_016_10",
        "nom_sp": "Yaossedougou",
        "cod_dep": "016",
        "annee": 2021,
        "latitude": 8.25,
        "longitude": -4.25,
        "population": 903
    },
    {
        "cod_sp": "SP_028_01",
        "nom_sp": "Fronan",
        "cod_dep": "028",
        "annee": 2021,
        "latitude": 8.21494,
        "longitude": -5.12549,
        "population": 21579
    },
    {
        "cod_sp": "SP_028_02",
        "nom_sp": "Katiola",
        "cod_dep": "028",
        "annee": 2021,
        "latitude": 8.2,
        "longitude": -5.10833,
        "population": 162472
    },
    {
        "cod_sp": "SP_028_03",
        "nom_sp": "Timbe",
        "cod_dep": "028",
        "annee": 2021,
        "latitude": 8.17009,
        "longitude": -4.94663,
        "population": 2912
    },
    {
        "cod_sp": "SP_085_01",
        "nom_sp": "Arikokaha",
        "cod_dep": "085",
        "annee": 2021,
        "latitude": 8.78763,
        "longitude": -5.19306,
        "population": 1598
    },
    {
        "cod_sp": "SP_085_02",
        "nom_sp": "Badikaha",
        "cod_dep": "085",
        "annee": 2021,
        "latitude": 9.19166,
        "longitude": -5.16499,
        "population": 6393
    },
    {
        "cod_sp": "SP_085_03",
        "nom_sp": "Niakaramadougou",
        "cod_dep": "085",
        "annee": 2021,
        "latitude": null,
        "longitude": null,
        "population": null
    },
    {
        "cod_sp": "SP_085_04",
        "nom_sp": "Niedekaha",
        "cod_dep": "085",
        "annee": 2021,
        "latitude": null,
        "longitude": null,
        "population": null
    },
    {
        "cod_sp": "SP_085_05",
        "nom_sp": "Tafire",
        "cod_dep": "085",
        "annee": 2021,
        "latitude": 9.06883,
        "longitude": -5.16404,
        "population": 22284
    },
    {
        "cod_sp": "SP_085_06",
        "nom_sp": "Tortiya",
        "cod_dep": "085",
        "annee": 2021,
        "latitude": 8.76821,
        "longitude": -5.6865,
        "population": 20738
    },
    {
        "cod_sp": "SP_019_03",
        "nom_sp": "Daoukro",
        "cod_dep": "019",
        "annee": 2021,
        "latitude": 7.22083,
        "longitude": -3.95417,
        "population": 148095
    },
    {
        "cod_sp": "SP_019_04",
        "nom_sp": "Ettrokro",
        "cod_dep": "019",
        "annee": 2021,
        "latitude": null,
        "longitude": null,
        "population": null
    },
    {
        "cod_sp": "SP_019_05",
        "nom_sp": "N'Gattakro",
        "cod_dep": "019",
        "annee": 2021,
        "latitude": 6.94739,
        "longitude": -5.72303,
        "population": 1177
    },
    {
        "cod_sp": "SP_019_07",
        "nom_sp": "Samanza",
        "cod_dep": "019",
        "annee": 2021,
        "latitude": null,
        "longitude": null,
        "population": null
    },
    {
        "cod_sp": "SP_033_01",
        "nom_sp": "Bonguera",
        "cod_dep": "033",
        "annee": 2021,
        "latitude": 7.66663,
        "longitude": -4.24335,
        "population": 4076
    },
    {
        "cod_sp": "SP_033_02",
        "nom_sp": "Kondossou",
        "cod_dep": "033",
        "annee": 2021,
        "latitude": null,
        "longitude": null,
        "population": null
    },
    {
        "cod_sp": "SP_033_03",
        "nom_sp": "M'Bahiakro",
        "cod_dep": "033",
        "annee": 2021,
        "latitude": 7.58333,
        "longitude": -4.32083,
        "population": 78369
    },
    {
        "cod_sp": "SP_064_01",
        "nom_sp": "Anianou",
        "cod_dep": "064",
        "annee": 2021,
        "latitude": null,
        "longitude": null,
        "population": null
    },
    {
        "cod_sp": "SP_064_02",
        "nom_sp": "Famienkro",
        "cod_dep": "064",
        "annee": 2021,
        "latitude": 7.86322,
        "longitude": -3.98564,
        "population": 3357
    },
    {
        "cod_sp": "SP_064_03",
        "nom_sp": "Koffi-Amonkro",
        "cod_dep": "064",
        "annee": 2021,
        "latitude": null,
        "longitude": null,
        "population": null
    },
    {
        "cod_sp": "SP_064_04",
        "nom_sp": "Nafana",
        "cod_dep": "064",
        "annee": 2021,
        "latitude": 7.60558,
        "longitude": -3.73052,
        "population": 2071
    },
    {
        "cod_sp": "SP_064_05",
        "nom_sp": "Prikro",
        "cod_dep": "064",
        "annee": 2021,
        "latitude": 7.675,
        "longitude": -3.94583,
        "population": 95595
    },
    {
        "cod_sp": "SP_111_01",
        "nom_sp": "Akpassanou",
        "cod_dep": "111",
        "annee": 2021,
        "latitude": null,
        "longitude": null,
        "population": null
    },
    {
        "cod_sp": "SP_111_02",
        "nom_sp": "Ananda",
        "cod_dep": "111",
        "annee": 2021,
        "latitude": 7.28333,
        "longitude": -4.26667,
        "population": 3781
    },
    {
        "cod_sp": "SP_111_03",
        "nom_sp": "Ouelle",
        "cod_dep": "111",
        "annee": 2021,
        "latitude": 7.29611,
        "longitude": -4.01364,
        "population": 8481
    },
    {
        "cod_sp": "SP_004_01",
        "nom_sp": "Adzope",
        "cod_dep": "004",
        "annee": 2021,
        "latitude": 6.10694,
        "longitude": -3.86194,
        "population": 76122
    },
    {
        "cod_sp": "SP_004_02",
        "nom_sp": "Agou",
        "cod_dep": "004",
        "annee": 2021,
        "latitude": 5.74078,
        "longitude": -4.21744,
        "population": 0
    },
    {
        "cod_sp": "SP_004_03",
        "nom_sp": "Annepe",
        "cod_dep": "004",
        "annee": 2021,
        "latitude": 5.90612,
        "longitude": -3.76986,
        "population": 5648
    },
    {
        "cod_sp": "SP_004_04",
        "nom_sp": "Assikoi",
        "cod_dep": "004",
        "annee": 2021,
        "latitude": null,
        "longitude": null,
        "population": null
    },
    {
        "cod_sp": "SP_004_05",
        "nom_sp": "Becedi-Brignan",
        "cod_dep": "004",
        "annee": 2021,
        "latitude": 5.90909,
        "longitude": -4.01281,
        "population": 20284
    },
    {
        "cod_sp": "SP_004_06",
        "nom_sp": "Yakasse-Me",
        "cod_dep": "004",
        "annee": 2021,
        "latitude": 5.81052,
        "longitude": -3.9511,
        "population": 12733
    },
    {
        "cod_sp": "SP_052_01",
        "nom_sp": "Aboisso-Comoe",
        "cod_dep": "052",
        "annee": 2021,
        "latitude": 5.7351,
        "longitude": -3.40338,
        "population": 20659
    },
    {
        "cod_sp": "SP_052_02",
        "nom_sp": "Alepe",
        "cod_dep": "052",
        "annee": 2021,
        "latitude": 5.5004,
        "longitude": -3.66308,
        "population": 11725
    },
    {
        "cod_sp": "SP_052_03",
        "nom_sp": "Allosso",
        "cod_dep": "052",
        "annee": 2021,
        "latitude": null,
        "longitude": null,
        "population": null
    },
    {
        "cod_sp": "SP_052_04",
        "nom_sp": "Danguira",
        "cod_dep": "052",
        "annee": 2021,
        "latitude": 5.67033,
        "longitude": -3.76763,
        "population": 11481
    },
    {
        "cod_sp": "SP_052_05",
        "nom_sp": "Oghlwapo",
        "cod_dep": "052",
        "annee": 2021,
        "latitude": 5.40253,
        "longitude": -3.74355,
        "population": 3446
    },